[{
    "id": 3480812,
    "name": "Puntas de Valdez",
    "country": "UY",
    "coord": {
      "lon": -56.69944,
      "lat": -34.583889
    }
  },
  {
    "id": 3480820,
    "name": "Colonia Nicolich",
    "country": "UY",
    "coord": {
      "lon": -56.04472,
      "lat": -34.813061
    }
  },
  {
    "id": 3480822,
    "name": "Barra de Carrasco",
    "country": "UY",
    "coord": {
      "lon": -56.02972,
      "lat": -34.87722
    }
  },
  {
    "id": 3480825,
    "name": "Pajas Blancas",
    "country": "UY",
    "coord": {
      "lon": -56.334171,
      "lat": -34.80167
    }
  },
  {
    "id": 601299,
    "name": "Muynoq",
    "country": "UZ",
    "coord": {
      "lon": 59.021389,
      "lat": 43.76833
    }
  },
  {
    "id": 601306,
    "name": "Qanlikol",
    "country": "UZ",
    "coord": {
      "lon": 59.000931,
      "lat": 42.8395
    }
  },
  {
    "id": 601349,
    "name": "Kegeyli Shahar",
    "country": "UZ",
    "coord": {
      "lon": 59.60778,
      "lat": 42.776669
    }
  },
  {
    "id": 601351,
    "name": "Qozonketkan",
    "country": "UZ",
    "coord": {
      "lon": 59.36425,
      "lat": 43.01907
    }
  },
  {
    "id": 601423,
    "name": "Oqmangit",
    "country": "UZ",
    "coord": {
      "lon": 59.534439,
      "lat": 42.598888
    }
  },
  {
    "id": 829955,
    "name": "Qongirot Shahri",
    "country": "UZ",
    "coord": {
      "lon": 58.845959,
      "lat": 43.052071
    }
  },
  {
    "id": 829959,
    "name": "Xojayli Shahri",
    "country": "UZ",
    "coord": {
      "lon": 59.445438,
      "lat": 42.40881
    }
  },
  {
    "id": 829960,
    "name": "Chimboy Shahri",
    "country": "UZ",
    "coord": {
      "lon": 59.78199,
      "lat": 42.92952
    }
  },
  {
    "id": 829962,
    "name": "Moynoq Shahri",
    "country": "UZ",
    "coord": {
      "lon": 59.030392,
      "lat": 43.77877
    }
  },
  {
    "id": 829964,
    "name": "Shumanay Shahri",
    "country": "UZ",
    "coord": {
      "lon": 58.930599,
      "lat": 42.634331
    }
  },
  {
    "id": 1215736,
    "name": "Nishon Tumani",
    "country": "UZ",
    "coord": {
      "lon": 65.675117,
      "lat": 38.693951
    }
  },
  {
    "id": 1215856,
    "name": "Muglon Shahar",
    "country": "UZ",
    "coord": {
      "lon": 65.41217,
      "lat": 38.918781
    }
  },
  {
    "id": 1216189,
    "name": "Shohimardon",
    "country": "UZ",
    "coord": {
      "lon": 71.80278,
      "lat": 39.983891
    }
  },
  {
    "id": 1216290,
    "name": "Romiton",
    "country": "UZ",
    "coord": {
      "lon": 64.37944,
      "lat": 39.92944
    }
  },
  {
    "id": 1216490,
    "name": "Yangi Mirishkor",
    "country": "UZ",
    "coord": {
      "lon": 65.277893,
      "lat": 38.851429
    }
  },
  {
    "id": 1217035,
    "name": "Qorovulbozor",
    "country": "UZ",
    "coord": {
      "lon": 64.79361,
      "lat": 39.500561
    }
  },
  {
    "id": 1217215,
    "name": "Ishtixon",
    "country": "UZ",
    "coord": {
      "lon": 66.486107,
      "lat": 39.966389
    }
  },
  {
    "id": 1217414,
    "name": "Jomboy",
    "country": "UZ",
    "coord": {
      "lon": 67.09333,
      "lat": 39.698891
    }
  },
  {
    "id": 1217512,
    "name": "Daxbet",
    "country": "UZ",
    "coord": {
      "lon": 66.912498,
      "lat": 39.763889
    }
  },
  {
    "id": 1217595,
    "name": "Charxin",
    "country": "UZ",
    "coord": {
      "lon": 66.768608,
      "lat": 39.696671
    }
  },
  {
    "id": 1217907,
    "name": "Olot",
    "country": "UZ",
    "coord": {
      "lon": 63.803329,
      "lat": 39.415001
    }
  },
  {
    "id": 1346442,
    "name": "Qorovulbozor Shahri",
    "country": "UZ",
    "coord": {
      "lon": 64.811417,
      "lat": 39.503078
    }
  },
  {
    "id": 1346480,
    "name": "Qorashina",
    "country": "UZ",
    "coord": {
      "lon": 66.563423,
      "lat": 38.34185
    }
  },
  {
    "id": 1346482,
    "name": "Shahrisabz Shahri",
    "country": "UZ",
    "coord": {
      "lon": 66.820831,
      "lat": 39.052059
    }
  },
  {
    "id": 1346483,
    "name": "Koson Shahri",
    "country": "UZ",
    "coord": {
      "lon": 65.59082,
      "lat": 39.04472
    }
  },
  {
    "id": 1346486,
    "name": "Muborak Shahri",
    "country": "UZ",
    "coord": {
      "lon": 65.156738,
      "lat": 39.257778
    }
  },
  {
    "id": 1346487,
    "name": "Beshkent Shahri",
    "country": "UZ",
    "coord": {
      "lon": 65.642464,
      "lat": 38.811069
    }
  },
  {
    "id": 1346488,
    "name": "Guzor Shahri",
    "country": "UZ",
    "coord": {
      "lon": 66.245148,
      "lat": 38.625961
    }
  },
  {
    "id": 1346489,
    "name": "Qamashi Shahri",
    "country": "UZ",
    "coord": {
      "lon": 66.464409,
      "lat": 38.819981
    }
  },
  {
    "id": 1346491,
    "name": "Chiroqchi Shahri",
    "country": "UZ",
    "coord": {
      "lon": 66.580841,
      "lat": 39.027271
    }
  },
  {
    "id": 1346492,
    "name": "Yakkabog Shahri",
    "country": "UZ",
    "coord": {
      "lon": 66.688667,
      "lat": 38.976639
    }
  },
  {
    "id": 1346493,
    "name": "Yangi-Nishon Shahri",
    "country": "UZ",
    "coord": {
      "lon": 65.689522,
      "lat": 38.645012
    }
  },
  {
    "id": 1512464,
    "name": "Urtaowul",
    "country": "UZ",
    "coord": {
      "lon": 69.145279,
      "lat": 41.186668
    }
  },
  {
    "id": 1512675,
    "name": "Tomdibuloq",
    "country": "UZ",
    "coord": {
      "lon": 64.617111,
      "lat": 41.750801
    }
  },
  {
    "id": 1512699,
    "name": "Taxtakopir",
    "country": "UZ",
    "coord": {
      "lon": 60.301109,
      "lat": 43.011711
    }
  },
  {
    "id": 1513242,
    "name": "Marhamat",
    "country": "UZ",
    "coord": {
      "lon": 72.313881,
      "lat": 40.48048
    }
  },
  {
    "id": 1513288,
    "name": "Qiziltepa",
    "country": "UZ",
    "coord": {
      "lon": 64.849998,
      "lat": 40.033058
    }
  },
  {
    "id": 1513491,
    "name": "Komsomolskiy",
    "country": "UZ",
    "coord": {
      "lon": 71.718887,
      "lat": 40.427219
    }
  },
  {
    "id": 1513650,
    "name": "Hamza",
    "country": "UZ",
    "coord": {
      "lon": 71.49556,
      "lat": 40.426392
    }
  },
  {
    "id": 1513733,
    "name": "Qoraozak",
    "country": "UZ",
    "coord": {
      "lon": 60.01701,
      "lat": 43.022072
    }
  },
  {
    "id": 1513831,
    "name": "Konimex",
    "country": "UZ",
    "coord": {
      "lon": 65.145111,
      "lat": 40.275928
    }
  },
  {
    "id": 1513990,
    "name": "Gazli",
    "country": "UZ",
    "coord": {
      "lon": 63.450001,
      "lat": 40.133331
    }
  },
  {
    "id": 1514027,
    "name": "Amir Timur",
    "country": "UZ",
    "coord": {
      "lon": 68.940826,
      "lat": 41.01944
    }
  },
  {
    "id": 1514225,
    "name": "Kyzyldzhar",
    "country": "UZ",
    "coord": {
      "lon": 70.01667,
      "lat": 41.566669
    }
  },
  {
    "id": 1514369,
    "name": "Beshrabot",
    "country": "UZ",
    "coord": {
      "lon": 65.335281,
      "lat": 40.197609
    }
  },
  {
    "id": 1538221,
    "name": "Beruniy Shahri",
    "country": "UZ",
    "coord": {
      "lon": 60.755009,
      "lat": 41.699039
    }
  },
  {
    "id": 1538222,
    "name": "Tortkol Shahri",
    "country": "UZ",
    "coord": {
      "lon": 61.001801,
      "lat": 41.560551
    }
  },
  {
    "id": 1538223,
    "name": "Boston Shahri",
    "country": "UZ",
    "coord": {
      "lon": 60.947441,
      "lat": 41.846069
    }
  },
  {
    "id": 1538224,
    "name": "Mangit Shahri",
    "country": "UZ",
    "coord": {
      "lon": 60.062759,
      "lat": 42.12215
    }
  },
  {
    "id": 1538229,
    "name": "Navoiy Shahri",
    "country": "UZ",
    "coord": {
      "lon": 65.371201,
      "lat": 40.092941
    }
  },
  {
    "id": 1538231,
    "name": "Uchquduq Shahri",
    "country": "UZ",
    "coord": {
      "lon": 63.552212,
      "lat": 42.150009
    }
  },
  {
    "id": 1538233,
    "name": "Qiziltepa Shahri",
    "country": "UZ",
    "coord": {
      "lon": 64.82885,
      "lat": 40.025398
    }
  },
  {
    "id": 1538234,
    "name": "Nurota Shahri",
    "country": "UZ",
    "coord": {
      "lon": 65.679466,
      "lat": 40.567619
    }
  },
  {
    "id": 1538273,
    "name": "Namangan Shahri",
    "country": "UZ",
    "coord": {
      "lon": 71.660919,
      "lat": 40.994259
    }
  },
  {
    "id": 1538274,
    "name": "Kosonsoy Shahri",
    "country": "UZ",
    "coord": {
      "lon": 71.542389,
      "lat": 41.263271
    }
  },
  {
    "id": 1538276,
    "name": "Chortoq Shahri",
    "country": "UZ",
    "coord": {
      "lon": 71.817719,
      "lat": 41.07703
    }
  },
  {
    "id": 1538278,
    "name": "Haqqulobod Shahri",
    "country": "UZ",
    "coord": {
      "lon": 72.120583,
      "lat": 40.91634
    }
  },
  {
    "id": 1538279,
    "name": "Pop Shahri",
    "country": "UZ",
    "coord": {
      "lon": 71.102203,
      "lat": 40.876419
    }
  },
  {
    "id": 1538280,
    "name": "Turagurghon Shahri",
    "country": "UZ",
    "coord": {
      "lon": 71.510559,
      "lat": 41.003342
    }
  },
  {
    "id": 3577844,
    "name": "Port Elizabeth",
    "country": "VC",
    "coord": {
      "lon": -61.23333,
      "lat": 13.01667
    }
  },
  {
    "id": 3577900,
    "name": "Georgetown",
    "country": "VC",
    "coord": {
      "lon": -61.130199,
      "lat": 13.2879
    }
  },
  {
    "id": 3577944,
    "name": "Byera Village",
    "country": "VC",
    "coord": {
      "lon": -61.116669,
      "lat": 13.25
    }
  },
  {
    "id": 3577955,
    "name": "Biabou",
    "country": "VC",
    "coord": {
      "lon": -61.133331,
      "lat": 13.2
    }
  },
  {
    "id": 3577962,
    "name": "Barrouallie",
    "country": "VC",
    "coord": {
      "lon": -61.26667,
      "lat": 13.23333
    }
  },
  {
    "id": 3481456,
    "name": "Tocuyito",
    "country": "VE",
    "coord": {
      "lon": -68.0793,
      "lat": 10.10861
    }
  },
  {
    "id": 3485791,
    "name": "El Chaparro",
    "country": "VE",
    "coord": {
      "lon": -65.016876,
      "lat": 9.15177
    }
  },
  {
    "id": 3486577,
    "name": "Santa Cruz de Guacas",
    "country": "VE",
    "coord": {
      "lon": -71.301399,
      "lat": 7.44329
    }
  },
  {
    "id": 3486692,
    "name": "El Real",
    "country": "VE",
    "coord": {
      "lon": -69.99633,
      "lat": 8.43525
    }
  },
  {
    "id": 3486718,
    "name": "Puerto Vivas",
    "country": "VE",
    "coord": {
      "lon": -71.84446,
      "lat": 7.50005
    }
  },
  {
    "id": 3486930,
    "name": "La Mula",
    "country": "VE",
    "coord": {
      "lon": -70.375237,
      "lat": 8.57084
    }
  },
  {
    "id": 3487261,
    "name": "Los Guasimitos",
    "country": "VE",
    "coord": {
      "lon": -70.232162,
      "lat": 8.66435
    }
  },
  {
    "id": 3625051,
    "name": "Zea",
    "country": "VE",
    "coord": {
      "lon": -71.781853,
      "lat": 8.37628
    }
  },
  {
    "id": 3625155,
    "name": "Yumare",
    "country": "VE",
    "coord": {
      "lon": -68.672447,
      "lat": 10.59732
    }
  },
  {
    "id": 3625214,
    "name": "Yaracal",
    "country": "VE",
    "coord": {
      "lon": -68.54435,
      "lat": 10.97099
    }
  },
  {
    "id": 3625239,
    "name": "Yaguaraparo",
    "country": "VE",
    "coord": {
      "lon": -62.826931,
      "lat": 10.56916
    }
  },
  {
    "id": 3625469,
    "name": "Las Casitas del Vegon de Nutrias",
    "country": "VE",
    "coord": {
      "lon": -69.418297,
      "lat": 8.23704
    }
  },
  {
    "id": 3625519,
    "name": "Valle de Guanape",
    "country": "VE",
    "coord": {
      "lon": -65.674049,
      "lat": 9.90999
    }
  },
  {
    "id": 3625613,
    "name": "Urumaco",
    "country": "VE",
    "coord": {
      "lon": -70.25499,
      "lat": 11.19913
    }
  },
  {
    "id": 3625696,
    "name": "Urachiche",
    "country": "VE",
    "coord": {
      "lon": -69.011108,
      "lat": 10.15917
    }
  },
  {
    "id": 3625732,
    "name": "Umuquena",
    "country": "VE",
    "coord": {
      "lon": -72.063713,
      "lat": 8.26588
    }
  },
  {
    "id": 3625944,
    "name": "Tucupido",
    "country": "VE",
    "coord": {
      "lon": -65.77153,
      "lat": 9.27496
    }
  },
  {
    "id": 3625963,
    "name": "Tucani",
    "country": "VE",
    "coord": {
      "lon": -71.272774,
      "lat": 8.97003
    }
  },
  {
    "id": 3626047,
    "name": "Tovar",
    "country": "VE",
    "coord": {
      "lon": -71.751183,
      "lat": 8.33204
    }
  },
  {
    "id": 3626074,
    "name": "Torunos",
    "country": "VE",
    "coord": {
      "lon": -70.080559,
      "lat": 8.50016
    }
  },
  {
    "id": 3626094,
    "name": "Torondoy",
    "country": "VE",
    "coord": {
      "lon": -71.014061,
      "lat": 9.03115
    }
  },
  {
    "id": 3626168,
    "name": "Tocopero",
    "country": "VE",
    "coord": {
      "lon": -69.258919,
      "lat": 11.49897
    }
  },
  {
    "id": 3626237,
    "name": "Timotes",
    "country": "VE",
    "coord": {
      "lon": -70.739258,
      "lat": 8.98224
    }
  },
  {
    "id": 3626302,
    "name": "Tia Juana",
    "country": "VE",
    "coord": {
      "lon": -71.368652,
      "lat": 10.25838
    }
  },
  {
    "id": 3626595,
    "name": "Tabay",
    "country": "VE",
    "coord": {
      "lon": -71.07843,
      "lat": 8.6311
    }
  },
  {
    "id": 3626741,
    "name": "Soledad",
    "country": "VE",
    "coord": {
      "lon": -63.565842,
      "lat": 8.16281
    }
  },
  {
    "id": 3626764,
    "name": "Socopo",
    "country": "VE",
    "coord": {
      "lon": -70.821983,
      "lat": 8.23062
    }
  },
  {
    "id": 3626785,
    "name": "Siquisique",
    "country": "VE",
    "coord": {
      "lon": -69.703018,
      "lat": 10.57027
    }
  },
  {
    "id": 3626809,
    "name": "Sinamaica",
    "country": "VE",
    "coord": {
      "lon": -71.853638,
      "lat": 11.08515
    }
  },
  {
    "id": 3626921,
    "name": "Seboruco",
    "country": "VE",
    "coord": {
      "lon": -72.073318,
      "lat": 8.14514
    }
  },
  {
    "id": 3626960,
    "name": "Sarare",
    "country": "VE",
    "coord": {
      "lon": -69.1633,
      "lat": 9.78128
    }
  },
  {
    "id": 3627021,
    "name": "Santo Domingo",
    "country": "VE",
    "coord": {
      "lon": -70.694801,
      "lat": 8.86052
    }
  },
  {
    "id": 3627034,
    "name": "San Timoteo",
    "country": "VE",
    "coord": {
      "lon": -71.066673,
      "lat": 9.8
    }
  },
  {
    "id": 3627148,
    "name": "Santa Rosa",
    "country": "VE",
    "coord": {
      "lon": -69.70105,
      "lat": 8.44033
    }
  },
  {
    "id": 3627237,
    "name": "Santa Maria de Ipire",
    "country": "VE",
    "coord": {
      "lon": -65.322502,
      "lat": 8.81556
    }
  },
  {
    "id": 3627240,
    "name": "Santa Maria de Caparo",
    "country": "VE",
    "coord": {
      "lon": -71.464661,
      "lat": 7.71412
    }
  },
  {
    "id": 3627304,
    "name": "Santa Lucia",
    "country": "VE",
    "coord": {
      "lon": -69.777519,
      "lat": 8.10155
    }
  },
  {
    "id": 3627334,
    "name": "Santa Isabel",
    "country": "VE",
    "coord": {
      "lon": -70.807587,
      "lat": 9.63217
    }
  },
  {
    "id": 3627360,
    "name": "Santa Ines",
    "country": "VE",
    "coord": {
      "lon": -69.897949,
      "lat": 8.26241
    }
  },
  {
    "id": 3627382,
    "name": "Santa Elena de Uairen",
    "country": "VE",
    "coord": {
      "lon": -61.133331,
      "lat": 4.61667
    }
  },
  {
    "id": 3627384,
    "name": "Santa Elena de Arenales",
    "country": "VE",
    "coord": {
      "lon": -71.465637,
      "lat": 8.81924
    }
  },
  {
    "id": 3627418,
    "name": "Santa Cruz",
    "country": "VE",
    "coord": {
      "lon": -71.641258,
      "lat": 8.39823
    }
  },
  {
    "id": 3627423,
    "name": "Santa Cruz de Bucaral",
    "country": "VE",
    "coord": {
      "lon": -69.277763,
      "lat": 10.81953
    }
  },
  {
    "id": 3627510,
    "name": "Santa Catalina",
    "country": "VE",
    "coord": {
      "lon": -68.91745,
      "lat": 7.92408
    }
  },
  {
    "id": 3627549,
    "name": "Santa Barbara",
    "country": "VE",
    "coord": {
      "lon": -63.610031,
      "lat": 9.60886
    }
  },
  {
    "id": 3627561,
    "name": "Santa Barbara",
    "country": "VE",
    "coord": {
      "lon": -71.177879,
      "lat": 7.81348
    }
  },
  {
    "id": 3627576,
    "name": "Santa Apolonia",
    "country": "VE",
    "coord": {
      "lon": -71.014191,
      "lat": 9.47139
    }
  },
  {
    "id": 3627593,
    "name": "Santa Ana",
    "country": "VE",
    "coord": {
      "lon": -63.924198,
      "lat": 11.06908
    }
  },
  {
    "id": 3627609,
    "name": "Santa Ana",
    "country": "VE",
    "coord": {
      "lon": -64.654778,
      "lat": 9.3056
    }
  },
  {
    "id": 3627611,
    "name": "Santa Ana",
    "country": "VE",
    "coord": {
      "lon": -72.021744,
      "lat": 8.11697
    }
  },
  {
    "id": 3627633,
    "name": "San Simon",
    "country": "VE",
    "coord": {
      "lon": -71.850281,
      "lat": 8.35078
    }
  },
  {
    "id": 3627635,
    "name": "San Silvestre",
    "country": "VE",
    "coord": {
      "lon": -70.110268,
      "lat": 8.27585
    }
  },
  {
    "id": 3627680,
    "name": "San Rafael de Onoto",
    "country": "VE",
    "coord": {
      "lon": -68.973442,
      "lat": 9.67742
    }
  },
  {
    "id": 3627683,
    "name": "San Rafael de Carvajal",
    "country": "VE",
    "coord": {
      "lon": -70.58532,
      "lat": 9.30339
    }
  },
  {
    "id": 3627685,
    "name": "San Rafael de Canagua",
    "country": "VE",
    "coord": {
      "lon": -70.008614,
      "lat": 8.02667
    }
  },
  {
    "id": 3627874,
    "name": "San Pablo",
    "country": "VE",
    "coord": {
      "lon": -68.844513,
      "lat": 10.24828
    }
  },
  {
    "id": 3627969,
    "name": "San Mateo",
    "country": "VE",
    "coord": {
      "lon": -64.549599,
      "lat": 9.7392
    }
  },
  {
    "id": 3627997,
    "name": "San Luis",
    "country": "VE",
    "coord": {
      "lon": -69.683968,
      "lat": 11.12034
    }
  },
  {
    "id": 3628052,
    "name": "San Juan de Manapiare",
    "country": "VE",
    "coord": {
      "lon": -66.048622,
      "lat": 5.31718
    }
  },
  {
    "id": 3628066,
    "name": "San Juan Bautista",
    "country": "VE",
    "coord": {
      "lon": -63.944061,
      "lat": 11.01116
    }
  },
  {
    "id": 3628129,
    "name": "San Jose de Barlovento",
    "country": "VE",
    "coord": {
      "lon": -65.990517,
      "lat": 10.30125
    }
  },
  {
    "id": 3628148,
    "name": "San Jose de Aerocuar",
    "country": "VE",
    "coord": {
      "lon": -63.328522,
      "lat": 10.59973
    }
  },
  {
    "id": 3628374,
    "name": "San Francisco",
    "country": "VE",
    "coord": {
      "lon": -71.703644,
      "lat": 10.55363
    }
  },
  {
    "id": 3628394,
    "name": "San Fernando de Atabapo",
    "country": "VE",
    "coord": {
      "lon": -67.700317,
      "lat": 4.04956
    }
  },
  {
    "id": 3628487,
    "name": "San Casimiro",
    "country": "VE",
    "coord": {
      "lon": -67.014641,
      "lat": 10.00169
    }
  },
  {
    "id": 3628488,
    "name": "San Carlos de Rio Negro",
    "country": "VE",
    "coord": {
      "lon": -67.066673,
      "lat": 1.91667
    }
  },
  {
    "id": 3628552,
    "name": "San Antonio del Golfo",
    "country": "VE",
    "coord": {
      "lon": -63.789612,
      "lat": 10.44155
    }
  },
  {
    "id": 3628657,
    "name": "San Antonio",
    "country": "VE",
    "coord": {
      "lon": -68.433838,
      "lat": 7.96378
    }
  },
  {
    "id": 3628853,
    "name": "Sabaneta",
    "country": "VE",
    "coord": {
      "lon": -69.935158,
      "lat": 8.75326
    }
  },
  {
    "id": 3628904,
    "name": "Sabana Grande",
    "country": "VE",
    "coord": {
      "lon": -70.797623,
      "lat": 9.4028
    }
  },
  {
    "id": 3628918,
    "name": "Sabana de Parra",
    "country": "VE",
    "coord": {
      "lon": -69.036392,
      "lat": 10.12111
    }
  },
  {
    "id": 3628921,
    "name": "Sabana de Mendoza",
    "country": "VE",
    "coord": {
      "lon": -70.776123,
      "lat": 9.43513
    }
  },
  {
    "id": 3629102,
    "name": "Rio Chico",
    "country": "VE",
    "coord": {
      "lon": -65.977821,
      "lat": 10.32043
    }
  },
  {
    "id": 3629107,
    "name": "Rio Caribe",
    "country": "VE",
    "coord": {
      "lon": -63.109638,
      "lat": 10.6971
    }
  },
  {
    "id": 3629385,
    "name": "Quiriquire",
    "country": "VE",
    "coord": {
      "lon": -63.21991,
      "lat": 9.9795
    }
  },
  {
    "id": 3629459,
    "name": "Queniquea",
    "country": "VE",
    "coord": {
      "lon": -72.015572,
      "lat": 7.91717
    }
  },
  {
    "id": 3629490,
    "name": "Quebrada Seca",
    "country": "VE",
    "coord": {
      "lon": -70.319412,
      "lat": 8.70015
    }
  },
  {
    "id": 3629604,
    "name": "Punta de Piedra",
    "country": "VE",
    "coord": {
      "lon": -71.491638,
      "lat": 7.61759
    }
  },
  {
    "id": 3629653,
    "name": "Puerto Piritu",
    "country": "VE",
    "coord": {
      "lon": -65.042068,
      "lat": 10.0613
    }
  },
  {
    "id": 3629693,
    "name": "Puerto de Nutrias",
    "country": "VE",
    "coord": {
      "lon": -69.30246,
      "lat": 8.0728
    }
  },
  {
    "id": 3629696,
    "name": "Puerto Cumarebo",
    "country": "VE",
    "coord": {
      "lon": -69.352219,
      "lat": 11.48783
    }
  },
  {
    "id": 3629790,
    "name": "Pueblo Nuevo",
    "country": "VE",
    "coord": {
      "lon": -71.608879,
      "lat": 8.96454
    }
  },
  {
    "id": 3630086,
    "name": "Piritu",
    "country": "VE",
    "coord": {
      "lon": -69.137222,
      "lat": 11.37389
    }
  },
  {
    "id": 3630087,
    "name": "Piritu",
    "country": "VE",
    "coord": {
      "lon": -65.029747,
      "lat": 10.03891
    }
  },
  {
    "id": 3630089,
    "name": "Piritu",
    "country": "VE",
    "coord": {
      "lon": -69.210281,
      "lat": 9.37083
    }
  },
  {
    "id": 3630473,
    "name": "Pedregal",
    "country": "VE",
    "coord": {
      "lon": -70.120583,
      "lat": 11.02037
    }
  },
  {
    "id": 3630480,
    "name": "Pedraza La Vieja",
    "country": "VE",
    "coord": {
      "lon": -71.059341,
      "lat": 7.9168
    }
  },
  {
    "id": 3630490,
    "name": "Pedernales",
    "country": "VE",
    "coord": {
      "lon": -62.251511,
      "lat": 9.97152
    }
  },
  {
    "id": 3630778,
    "name": "La Plaza Paraguachi",
    "country": "VE",
    "coord": {
      "lon": -63.85537,
      "lat": 11.10783
    }
  },
  {
    "id": 3630826,
    "name": "Papelon",
    "country": "VE",
    "coord": {
      "lon": -69.460197,
      "lat": 8.94109
    }
  },
  {
    "id": 3630893,
    "name": "Pampatar",
    "country": "VE",
    "coord": {
      "lon": -63.79343,
      "lat": 11.00125
    }
  },
  {
    "id": 3630894,
    "name": "Pampanito",
    "country": "VE",
    "coord": {
      "lon": -70.50116,
      "lat": 9.41037
    }
  },
  {
    "id": 3630982,
    "name": "Palmira",
    "country": "VE",
    "coord": {
      "lon": -72.227577,
      "lat": 7.83607
    }
  },
  {
    "id": 3630999,
    "name": "Palmasola",
    "country": "VE",
    "coord": {
      "lon": -66.716667,
      "lat": 9.23333
    }
  },
  {
    "id": 3631247,
    "name": "Ortiz",
    "country": "VE",
    "coord": {
      "lon": -67.290466,
      "lat": 9.62168
    }
  },
  {
    "id": 3631333,
    "name": "Onoto",
    "country": "VE",
    "coord": {
      "lon": -65.193497,
      "lat": 9.59714
    }
  },
  {
    "id": 3631413,
    "name": "Ocumare de la Costa",
    "country": "VE",
    "coord": {
      "lon": -67.768723,
      "lat": 10.46127
    }
  },
  {
    "id": 3631431,
    "name": "Obispos",
    "country": "VE",
    "coord": {
      "lon": -70.104889,
      "lat": 8.60701
    }
  },
  {
    "id": 3631465,
    "name": "Nueva Bolivia",
    "country": "VE",
    "coord": {
      "lon": -71.091202,
      "lat": 9.14176
    }
  },
  {
    "id": 3631752,
    "name": "Mucuchies",
    "country": "VE",
    "coord": {
      "lon": -70.914177,
      "lat": 8.74899
    }
  },
  {
    "id": 3631791,
    "name": "Motatan",
    "country": "VE",
    "coord": {
      "lon": -70.591187,
      "lat": 9.39002
    }
  },
  {
    "id": 3632051,
    "name": "Monte Carmelo",
    "country": "VE",
    "coord": {
      "lon": -70.815613,
      "lat": 9.18583
    }
  },
  {
    "id": 3632072,
    "name": "Montalban",
    "country": "VE",
    "coord": {
      "lon": -68.326736,
      "lat": 10.21298
    }
  },
  {
    "id": 3632186,
    "name": "Mirimire",
    "country": "VE",
    "coord": {
      "lon": -68.726044,
      "lat": 11.1602
    }
  },
  {
    "id": 3632198,
    "name": "Miranda",
    "country": "VE",
    "coord": {
      "lon": -68.39418,
      "lat": 10.14987
    }
  },
  {
    "id": 3632836,
    "name": "Masparrito",
    "country": "VE",
    "coord": {
      "lon": -70.301392,
      "lat": 9.00194
    }
  },
  {
    "id": 3632867,
    "name": "Maroa",
    "country": "VE",
    "coord": {
      "lon": -67.559921,
      "lat": 2.71861
    }
  },
  {
    "id": 3632890,
    "name": "Maripa",
    "country": "VE",
    "coord": {
      "lon": -65.189613,
      "lat": 7.41537
    }
  },
  {
    "id": 3632910,
    "name": "Mariguitar",
    "country": "VE",
    "coord": {
      "lon": -63.904491,
      "lat": 10.44716
    }
  },
  {
    "id": 3633063,
    "name": "Maporal",
    "country": "VE",
    "coord": {
      "lon": -70.419853,
      "lat": 7.645
    }
  },
  {
    "id": 3633248,
    "name": "Mamporal",
    "country": "VE",
    "coord": {
      "lon": -66.13044,
      "lat": 10.36461
    }
  },
  {
    "id": 3634116,
    "name": "Los Guayos",
    "country": "VE",
    "coord": {
      "lon": -67.937698,
      "lat": 10.18026
    }
  },
  {
    "id": 3634696,
    "name": "Lobatera",
    "country": "VE",
    "coord": {
      "lon": -72.246834,
      "lat": 7.9293
    }
  },
  {
    "id": 3634760,
    "name": "Libertad",
    "country": "VE",
    "coord": {
      "lon": -68.691772,
      "lat": 9.35562
    }
  },
  {
    "id": 3634761,
    "name": "Libertad",
    "country": "VE",
    "coord": {
      "lon": -69.629768,
      "lat": 8.32651
    }
  },
  {
    "id": 3634763,
    "name": "Capacho Viejo",
    "country": "VE",
    "coord": {
      "lon": -72.319069,
      "lat": 7.82853
    }
  },
  {
    "id": 3634816,
    "name": "La Yuca",
    "country": "VE",
    "coord": {
      "lon": -70.180717,
      "lat": 8.73109
    }
  },
  {
    "id": 3634973,
    "name": "Veguitas",
    "country": "VE",
    "coord": {
      "lon": -69.995811,
      "lat": 8.82391
    }
  },
  {
    "id": 3635064,
    "name": "La Union",
    "country": "VE",
    "coord": {
      "lon": -67.766533,
      "lat": 8.21573
    }
  },
  {
    "id": 3635260,
    "name": "Las Vegas",
    "country": "VE",
    "coord": {
      "lon": -68.629601,
      "lat": 9.53727
    }
  },
  {
    "id": 3635714,
    "name": "Las Mercedes",
    "country": "VE",
    "coord": {
      "lon": -66.397179,
      "lat": 9.11018
    }
  },
  {
    "id": 3636565,
    "name": "La Quebrada",
    "country": "VE",
    "coord": {
      "lon": -70.576042,
      "lat": 9.15462
    }
  },
  {
    "id": 3637311,
    "name": "La Luz",
    "country": "VE",
    "coord": {
      "lon": -69.823578,
      "lat": 8.39419
    }
  },
  {
    "id": 3637624,
    "name": "Lagunillas",
    "country": "VE",
    "coord": {
      "lon": -71.387894,
      "lat": 8.51286
    }
  },
  {
    "id": 3638075,
    "name": "La Esmeralda",
    "country": "VE",
    "coord": {
      "lon": -65.550003,
      "lat": 3.16667
    }
  },
  {
    "id": 3638264,
    "name": "La Cruz de Taratara",
    "country": "VE",
    "coord": {
      "lon": -69.713097,
      "lat": 11.06396
    }
  },
  {
    "id": 3638371,
    "name": "La Concepcion",
    "country": "VE",
    "coord": {
      "lon": -71.838142,
      "lat": 10.61919
    }
  },
  {
    "id": 3638497,
    "name": "Chameta",
    "country": "VE",
    "coord": {
      "lon": -70.906708,
      "lat": 8.10024
    }
  },
  {
    "id": 3638655,
    "name": "Caramuca",
    "country": "VE",
    "coord": {
      "lon": -70.320557,
      "lat": 8.59708
    }
  },
  {
    "id": 3638904,
    "name": "La Azulita",
    "country": "VE",
    "coord": {
      "lon": -71.444168,
      "lat": 8.71314
    }
  },
  {
    "id": 3639282,
    "name": "Jacura",
    "country": "VE",
    "coord": {
      "lon": -68.856041,
      "lat": 11.07417
    }
  },
  {
    "id": 3639350,
    "name": "Irapa",
    "country": "VE",
    "coord": {
      "lon": -62.58102,
      "lat": 10.56968
    }
  },
  {
    "id": 3639880,
    "name": "Guayabal",
    "country": "VE",
    "coord": {
      "lon": -67.397324,
      "lat": 8.00077
    }
  },
  {
    "id": 3640100,
    "name": "Guaraque",
    "country": "VE",
    "coord": {
      "lon": -71.735626,
      "lat": 8.15347
    }
  },
  {
    "id": 3640179,
    "name": "Guanta",
    "country": "VE",
    "coord": {
      "lon": -64.59552,
      "lat": 10.23448
    }
  },
  {
    "id": 3640215,
    "name": "Guanarito",
    "country": "VE",
    "coord": {
      "lon": -69.208321,
      "lat": 8.69625
    }
  },
  {
    "id": 3640407,
    "name": "Guadarrama",
    "country": "VE",
    "coord": {
      "lon": -68.049232,
      "lat": 8.53508
    }
  },
  {
    "id": 3640853,
    "name": "Farriar",
    "country": "VE",
    "coord": {
      "lon": -68.558571,
      "lat": 10.46967
    }
  },
  {
    "id": 3641008,
    "name": "Encontrados",
    "country": "VE",
    "coord": {
      "lon": -72.234131,
      "lat": 9.06085
    }
  },
  {
    "id": 3641154,
    "name": "El Valle del Espiritu Santo",
    "country": "VE",
    "coord": {
      "lon": -63.883099,
      "lat": 10.98283
    }
  },
  {
    "id": 3641251,
    "name": "El Toro",
    "country": "VE",
    "coord": {
      "lon": -71.64843,
      "lat": 10.95423
    }
  },
  {
    "id": 3641440,
    "name": "El Sombrero",
    "country": "VE",
    "coord": {
      "lon": -67.058182,
      "lat": 9.3863
    }
  },
  {
    "id": 3641460,
    "name": "El Socorro",
    "country": "VE",
    "coord": {
      "lon": -65.74247,
      "lat": 8.99352
    }
  },
  {
    "id": 3641775,
    "name": "El Regalo",
    "country": "VE",
    "coord": {
      "lon": -69.176697,
      "lat": 8.43455
    }
  },
  {
    "id": 3642031,
    "name": "San Rafael del Pinal",
    "country": "VE",
    "coord": {
      "lon": -71.959221,
      "lat": 7.52986
    }
  },
  {
    "id": 3642042,
    "name": "El Pilar",
    "country": "VE",
    "coord": {
      "lon": -63.150002,
      "lat": 10.53333
    }
  },
  {
    "id": 3642243,
    "name": "El Paradero",
    "country": "VE",
    "coord": {
      "lon": -70.61544,
      "lat": 9.77233
    }
  },
  {
    "id": 3642260,
    "name": "El Pao",
    "country": "VE",
    "coord": {
      "lon": -68.128838,
      "lat": 9.63752
    }
  },
  {
    "id": 3642292,
    "name": "El Palmer",
    "country": "VE",
    "coord": {
      "lon": -61.883331,
      "lat": 8.03333
    }
  },
  {
    "id": 3642390,
    "name": "Elorza",
    "country": "VE",
    "coord": {
      "lon": -69.49765,
      "lat": 7.06088
    }
  },
  {
    "id": 3643361,
    "name": "El Dividive",
    "country": "VE",
    "coord": {
      "lon": -70.733849,
      "lat": 9.47447
    }
  },
  {
    "id": 3643531,
    "name": "El Corozo",
    "country": "VE",
    "coord": {
      "lon": -70.35778,
      "lat": 8.5675
    }
  },
  {
    "id": 3643568,
    "name": "El Consejo",
    "country": "VE",
    "coord": {
      "lon": -67.2714,
      "lat": 10.23717
    }
  },
  {
    "id": 3643620,
    "name": "El Cobre",
    "country": "VE",
    "coord": {
      "lon": -72.055511,
      "lat": 8.03566
    }
  },
  {
    "id": 3643962,
    "name": "El Canton",
    "country": "VE",
    "coord": {
      "lon": -71.295601,
      "lat": 7.47729
    }
  },
  {
    "id": 3644163,
    "name": "El Baul",
    "country": "VE",
    "coord": {
      "lon": -68.29554,
      "lat": 8.96216
    }
  },
  {
    "id": 3644478,
    "name": "Dolores",
    "country": "VE",
    "coord": {
      "lon": -69.56633,
      "lat": 8.28623
    }
  },
  {
    "id": 3644571,
    "name": "Dabajuro",
    "country": "VE",
    "coord": {
      "lon": -70.677689,
      "lat": 11.02273
    }
  },
  {
    "id": 3644646,
    "name": "Curiapo",
    "country": "VE",
    "coord": {
      "lon": -60.997551,
      "lat": 8.58094
    }
  },
  {
    "id": 3644656,
    "name": "Curbati",
    "country": "VE",
    "coord": {
      "lon": -70.554413,
      "lat": 8.45443
    }
  },
  {
    "id": 3644701,
    "name": "Cupira",
    "country": "VE",
    "coord": {
      "lon": -65.700127,
      "lat": 10.16128
    }
  },
  {
    "id": 3644767,
    "name": "Cumanacoa",
    "country": "VE",
    "coord": {
      "lon": -63.919182,
      "lat": 10.25013
    }
  },
  {
    "id": 3645304,
    "name": "Concepcion",
    "country": "VE",
    "coord": {
      "lon": -71.76667,
      "lat": 10.8
    }
  },
  {
    "id": 3645360,
    "name": "Coloncito",
    "country": "VE",
    "coord": {
      "lon": -72.089508,
      "lat": 8.32563
    }
  },
  {
    "id": 3645387,
    "name": "Cojedes",
    "country": "VE",
    "coord": {
      "lon": -68.918053,
      "lat": 9.62232
    }
  },
  {
    "id": 3645469,
    "name": "Cocorote",
    "country": "VE",
    "coord": {
      "lon": -68.783859,
      "lat": 10.31978
    }
  },
  {
    "id": 3645522,
    "name": "Clarines",
    "country": "VE",
    "coord": {
      "lon": -65.165169,
      "lat": 9.93991
    }
  },
  {
    "id": 3645529,
    "name": "Ciudad De Nutrias",
    "country": "VE",
    "coord": {
      "lon": -69.307983,
      "lat": 8.09536
    }
  },
  {
    "id": 3645531,
    "name": "Ciudad Bolivia",
    "country": "VE",
    "coord": {
      "lon": -70.571213,
      "lat": 8.35304
    }
  },
  {
    "id": 3645586,
    "name": "Churuguara",
    "country": "VE",
    "coord": {
      "lon": -69.537819,
      "lat": 10.8137
    }
  },
  {
    "id": 3645806,
    "name": "Chichiriviche",
    "country": "VE",
    "coord": {
      "lon": -68.277161,
      "lat": 10.9333
    }
  },
  {
    "id": 3645827,
    "name": "Chejende",
    "country": "VE",
    "coord": {
      "lon": -70.356956,
      "lat": 9.61892
    }
  },
  {
    "id": 3645944,
    "name": "Chaguaramas",
    "country": "VE",
    "coord": {
      "lon": -66.252548,
      "lat": 9.33855
    }
  },
  {
    "id": 3646296,
    "name": "Casigua El Cubo",
    "country": "VE",
    "coord": {
      "lon": -72.519669,
      "lat": 8.74493
    }
  },
  {
    "id": 3646316,
    "name": "Casanay",
    "country": "VE",
    "coord": {
      "lon": -63.415531,
      "lat": 10.50368
    }
  },
  {
    "id": 3646581,
    "name": "Cariaco",
    "country": "VE",
    "coord": {
      "lon": -63.553989,
      "lat": 10.49573
    }
  },
  {
    "id": 3646731,
    "name": "Carache",
    "country": "VE",
    "coord": {
      "lon": -70.228554,
      "lat": 9.62872
    }
  },
  {
    "id": 3646796,
    "name": "Capitanejo",
    "country": "VE",
    "coord": {
      "lon": -71.004578,
      "lat": 8.01171
    }
  },
  {
    "id": 3646829,
    "name": "Capatarida",
    "country": "VE",
    "coord": {
      "lon": -70.61898,
      "lat": 11.1748
    }
  },
  {
    "id": 3647197,
    "name": "Campo Elias",
    "country": "VE",
    "coord": {
      "lon": -70.060349,
      "lat": 9.39347
    }
  },
  {
    "id": 3647400,
    "name": "Camaguan",
    "country": "VE",
    "coord": {
      "lon": -67.607239,
      "lat": 8.10655
    }
  },
  {
    "id": 3647435,
    "name": "Calderas",
    "country": "VE",
    "coord": {
      "lon": -70.447449,
      "lat": 8.91426
    }
  },
  {
    "id": 3647535,
    "name": "Caicara",
    "country": "VE",
    "coord": {
      "lon": -63.613312,
      "lat": 9.81754
    }
  },
  {
    "id": 3647636,
    "name": "Cabure",
    "country": "VE",
    "coord": {
      "lon": -69.608887,
      "lat": 11.15
    }
  },
  {
    "id": 3647637,
    "name": "Cabudare",
    "country": "VE",
    "coord": {
      "lon": -69.089439,
      "lat": 10.02889
    }
  },
  {
    "id": 3647729,
    "name": "Bum Bum",
    "country": "VE",
    "coord": {
      "lon": -70.76664,
      "lat": 8.27664
    }
  },
  {
    "id": 3648042,
    "name": "Boraure",
    "country": "VE",
    "coord": {
      "lon": -68.769501,
      "lat": 10.24933
    }
  },
  {
    "id": 3648127,
    "name": "Boconoito",
    "country": "VE",
    "coord": {
      "lon": -69.980324,
      "lat": 8.84659
    }
  },
  {
    "id": 3648163,
    "name": "Boca de Uchire",
    "country": "VE",
    "coord": {
      "lon": -65.42115,
      "lat": 10.13152
    }
  },
  {
    "id": 3648187,
    "name": "Boca del Rio",
    "country": "VE",
    "coord": {
      "lon": -64.180496,
      "lat": 10.96757
    }
  },
  {
    "id": 3648279,
    "name": "Biruaca",
    "country": "VE",
    "coord": {
      "lon": -67.516792,
      "lat": 7.84483
    }
  },
  {
    "id": 3648506,
    "name": "Barrancas",
    "country": "VE",
    "coord": {
      "lon": -70.112198,
      "lat": 8.76868
    }
  },
  {
    "id": 3648698,
    "name": "Bachaquero",
    "country": "VE",
    "coord": {
      "lon": -71.149437,
      "lat": 9.96944
    }
  },
  {
    "id": 3648873,
    "name": "Aroa",
    "country": "VE",
    "coord": {
      "lon": -68.894173,
      "lat": 10.43861
    }
  },
  {
    "id": 3648885,
    "name": "Arismendi",
    "country": "VE",
    "coord": {
      "lon": -68.369957,
      "lat": 8.47974
    }
  },
  {
    "id": 3648916,
    "name": "Aricagua",
    "country": "VE",
    "coord": {
      "lon": -71.137047,
      "lat": 8.22343
    }
  },
  {
    "id": 3649005,
    "name": "Araya",
    "country": "VE",
    "coord": {
      "lon": -64.258263,
      "lat": 10.57973
    }
  },
  {
    "id": 3649018,
    "name": "Arauquita",
    "country": "VE",
    "coord": {
      "lon": -69.657219,
      "lat": 8.70833
    }
  },
  {
    "id": 3649403,
    "name": "Altamira",
    "country": "VE",
    "coord": {
      "lon": -70.502441,
      "lat": 8.82359
    }
  },
  {
    "id": 3649576,
    "name": "Aguasay",
    "country": "VE",
    "coord": {
      "lon": -63.73077,
      "lat": 9.42489
    }
  },
  {
    "id": 3649859,
    "name": "Abejales",
    "country": "VE",
    "coord": {
      "lon": -71.51017,
      "lat": 7.62241
    }
  },
  {
    "id": 3738787,
    "name": "Las Mesas",
    "country": "VE",
    "coord": {
      "lon": -72.165558,
      "lat": 8.16454
    }
  },
  {
    "id": 3753107,
    "name": "Santa Rita",
    "country": "VE",
    "coord": {
      "lon": -67.538841,
      "lat": 10.20696
    }
  },
  {
    "id": 3758764,
    "name": "San Josecito",
    "country": "VE",
    "coord": {
      "lon": -72.219582,
      "lat": 7.65997
    }
  },
  {
    "id": 3759212,
    "name": "Cordero",
    "country": "VE",
    "coord": {
      "lon": -72.180748,
      "lat": 7.85591
    }
  },
  {
    "id": 3762895,
    "name": "Sierra Imataca",
    "country": "VE",
    "coord": {
      "lon": -62.428909,
      "lat": 8.4555
    }
  },
  {
    "id": 3778348,
    "name": "Temblador",
    "country": "VE",
    "coord": {
      "lon": -62.642159,
      "lat": 9.00716
    }
  },
  {
    "id": 3784154,
    "name": "Palmasola",
    "country": "VE",
    "coord": {
      "lon": -68.54422,
      "lat": 10.59363
    }
  },
  {
    "id": 3795119,
    "name": "Delicias",
    "country": "VE",
    "coord": {
      "lon": -72.44754,
      "lat": 7.56505
    }
  },
  {
    "id": 3795218,
    "name": "Capacho Nuevo",
    "country": "VE",
    "coord": {
      "lon": -72.308998,
      "lat": 7.82409
    }
  },
  {
    "id": 3795620,
    "name": "La Tendida",
    "country": "VE",
    "coord": {
      "lon": -71.831657,
      "lat": 8.50757
    }
  },
  {
    "id": 3797773,
    "name": "Agua Blanca",
    "country": "VE",
    "coord": {
      "lon": -69.107521,
      "lat": 9.66146
    }
  },
  {
    "id": 3798450,
    "name": "El Playon",
    "country": "VE",
    "coord": {
      "lon": -69.049141,
      "lat": 9.09857
    }
  },
  {
    "id": 3798818,
    "name": "Arapuey",
    "country": "VE",
    "coord": {
      "lon": -70.952477,
      "lat": 9.25934
    }
  },
  {
    "id": 3799319,
    "name": "Macapo",
    "country": "VE",
    "coord": {
      "lon": -68.438988,
      "lat": 9.82602
    }
  },
  {
    "id": 3805700,
    "name": "San Juan de Payara",
    "country": "VE",
    "coord": {
      "lon": -67.606743,
      "lat": 7.6456
    }
  },
  {
    "id": 3806799,
    "name": "San Sebastian",
    "country": "VE",
    "coord": {
      "lon": -67.176811,
      "lat": 9.94543
    }
  },
  {
    "id": 7289569,
    "name": "Lecherias",
    "country": "VE",
    "coord": {
      "lon": -64.694069,
      "lat": 10.19769
    }
  },
  {
    "id": 7909705,
    "name": "Santa Cruz de los Taques",
    "country": "VE",
    "coord": {
      "lon": -70.256371,
      "lat": 11.8235
    }
  },
  {
    "id": 8131509,
    "name": "Independencia",
    "country": "VE",
    "coord": {
      "lon": -68.755119,
      "lat": 10.33432
    }
  },
  {
    "id": 4795577,
    "name": "Cruz Bay",
    "country": "VI",
    "coord": {
      "lon": -64.793747,
      "lat": 18.331341
    }
  },
  {
    "id": 1566053,
    "name": "Huyen Thanh Son",
    "country": "VN",
    "coord": {
      "lon": 105.186142,
      "lat": 21.219879
    }
  },
  {
    "id": 1567649,
    "name": "Huyen Son Duong",
    "country": "VN",
    "coord": {
      "lon": 105.404121,
      "lat": 21.70363
    }
  },
  {
    "id": 1569901,
    "name": "Thi xa Phu Tho",
    "country": "VN",
    "coord": {
      "lon": 105.22702,
      "lat": 21.39883
    }
  },
  {
    "id": 1569973,
    "name": "Duong GJong",
    "country": "VN",
    "coord": {
      "lon": 103.966667,
      "lat": 10.21667
    }
  },
  {
    "id": 1570815,
    "name": "Phong Tho",
    "country": "VN",
    "coord": {
      "lon": 103.349998,
      "lat": 22.533331
    }
  },
  {
    "id": 1583240,
    "name": "Huyen Doan Hung",
    "country": "VN",
    "coord": {
      "lon": 105.185883,
      "lat": 21.6241
    }
  },
  {
    "id": 1584807,
    "name": "Con Son",
    "country": "VN",
    "coord": {
      "lon": 106.616669,
      "lat": 8.68333
    }
  },
  {
    "id": 7910088,
    "name": "Uyen Hung",
    "country": "VN",
    "coord": {
      "lon": 106.788338,
      "lat": 11.08416
    }
  },
  {
    "id": 8200099,
    "name": "Huyen Yen Lap",
    "country": "VN",
    "coord": {
      "lon": 105.060143,
      "lat": 21.350019
    }
  },
  {
    "id": 8200205,
    "name": "Huyen Thanh Hoa",
    "country": "VN",
    "coord": {
      "lon": 105.145348,
      "lat": 21.495831
    }
  },
  {
    "id": 8200212,
    "name": "Huyen Song Thao",
    "country": "VN",
    "coord": {
      "lon": 105.139473,
      "lat": 21.420799
    }
  },
  {
    "id": 8200783,
    "name": "Huyen Tam Thanh",
    "country": "VN",
    "coord": {
      "lon": 105.297752,
      "lat": 21.25564
    }
  },
  {
    "id": 8200836,
    "name": "Huyen Phong Chau",
    "country": "VN",
    "coord": {
      "lon": 105.293137,
      "lat": 21.43498
    }
  },
  {
    "id": 8201616,
    "name": "Huyen Ba Vi",
    "country": "VN",
    "coord": {
      "lon": 105.430183,
      "lat": 21.1999
    }
  },
  {
    "id": 2135175,
    "name": "Port-Olry",
    "country": "VU",
    "coord": {
      "lon": 167.050003,
      "lat": -15.05
    }
  },
  {
    "id": 2135517,
    "name": "Norsup",
    "country": "VU",
    "coord": {
      "lon": 167.383331,
      "lat": -16.066669
    }
  },
  {
    "id": 2136150,
    "name": "Luganville",
    "country": "VU",
    "coord": {
      "lon": 167.166672,
      "lat": -15.53333
    }
  },
  {
    "id": 2136697,
    "name": "Lakatoro",
    "country": "VU",
    "coord": {
      "lon": 167.416367,
      "lat": -16.09992
    }
  },
  {
    "id": 2136825,
    "name": "Isangel",
    "country": "VU",
    "coord": {
      "lon": 169.266663,
      "lat": -19.549999
    }
  },
  {
    "id": 4034903,
    "name": "Vaiusu",
    "country": "WS",
    "coord": {
      "lon": -171.79332,
      "lat": -13.82678
    }
  },
  {
    "id": 4034908,
    "name": "Vaitele",
    "country": "WS",
    "coord": {
      "lon": -171.802536,
      "lat": -13.81964
    }
  },
  {
    "id": 4035013,
    "name": "Solosolo",
    "country": "WS",
    "coord": {
      "lon": -171.641815,
      "lat": -13.87504
    }
  },
  {
    "id": 4035019,
    "name": "Siusega",
    "country": "WS",
    "coord": {
      "lon": -171.813965,
      "lat": -13.84432
    }
  },
  {
    "id": 4035059,
    "name": "Satapuala",
    "country": "WS",
    "coord": {
      "lon": -171.97963,
      "lat": -13.83535
    }
  },
  {
    "id": 4035118,
    "name": "Safotu",
    "country": "WS",
    "coord": {
      "lon": -172.401764,
      "lat": -13.45132
    }
  },
  {
    "id": 4035174,
    "name": "Nofoalii",
    "country": "WS",
    "coord": {
      "lon": -171.958725,
      "lat": -13.8217
    }
  },
  {
    "id": 4035209,
    "name": "Matavai",
    "country": "WS",
    "coord": {
      "lon": -171.647675,
      "lat": -14.03208
    }
  },
  {
    "id": 4035236,
    "name": "Malie",
    "country": "WS",
    "coord": {
      "lon": -171.846893,
      "lat": -13.80044
    }
  },
  {
    "id": 4035249,
    "name": "Lufilufi",
    "country": "WS",
    "coord": {
      "lon": -171.598572,
      "lat": -13.87449
    }
  },
  {
    "id": 4035252,
    "name": "Lotofaga",
    "country": "WS",
    "coord": {
      "lon": -171.857803,
      "lat": -13.97643
    }
  },
  {
    "id": 4035260,
    "name": "Leulumoega",
    "country": "WS",
    "coord": {
      "lon": -171.961273,
      "lat": -13.82298
    }
  },
  {
    "id": 4035310,
    "name": "Gataivai",
    "country": "WS",
    "coord": {
      "lon": -172.388016,
      "lat": -13.7736
    }
  },
  {
    "id": 4035335,
    "name": "Fasitoouta",
    "country": "WS",
    "coord": {
      "lon": -171.940628,
      "lat": -13.81163
    }
  },
  {
    "id": 4035345,
    "name": "Faleula",
    "country": "WS",
    "coord": {
      "lon": -171.831253,
      "lat": -13.79456
    }
  },
  {
    "id": 4035358,
    "name": "Falefa",
    "country": "WS",
    "coord": {
      "lon": -171.588043,
      "lat": -13.88695
    }
  },
  {
    "id": 4035432,
    "name": "Afenga",
    "country": "WS",
    "coord": {
      "lon": -171.853073,
      "lat": -13.79726
    }
  },
  {
    "id": 783770,
    "name": "Zvecan",
    "country": "XK",
    "coord": {
      "lon": 20.840281,
      "lat": 42.907501
    }
  },
  {
    "id": 783802,
    "name": "Zubin Potok",
    "country": "XK",
    "coord": {
      "lon": 20.68972,
      "lat": 42.91444
    }
  },
  {
    "id": 784372,
    "name": "Vitina",
    "country": "XK",
    "coord": {
      "lon": 21.35833,
      "lat": 42.321388
    }
  },
  {
    "id": 785388,
    "name": "Strpce",
    "country": "XK",
    "coord": {
      "lon": 21.02722,
      "lat": 42.239441
    }
  },
  {
    "id": 785642,
    "name": "Srbica",
    "country": "XK",
    "coord": {
      "lon": 20.78861,
      "lat": 42.74667
    }
  },
  {
    "id": 786156,
    "name": "Irzniq",
    "country": "XK",
    "coord": {
      "lon": 20.347219,
      "lat": 42.52
    }
  },
  {
    "id": 786734,
    "name": "Prilep",
    "country": "XK",
    "coord": {
      "lon": 20.31778,
      "lat": 42.5075
    }
  },
  {
    "id": 787155,
    "name": "Peqan",
    "country": "XK",
    "coord": {
      "lon": 20.821939,
      "lat": 42.38361
    }
  },
  {
    "id": 787268,
    "name": "Pagarusa",
    "country": "XK",
    "coord": {
      "lon": 20.74222,
      "lat": 42.419998
    }
  },
  {
    "id": 787534,
    "name": "Obiliq",
    "country": "XK",
    "coord": {
      "lon": 21.07028,
      "lat": 42.686939
    }
  },
  {
    "id": 787650,
    "name": "Nishor",
    "country": "XK",
    "coord": {
      "lon": 20.80167,
      "lat": 42.423889
    }
  },
  {
    "id": 788239,
    "name": "Malisevo",
    "country": "XK",
    "coord": {
      "lon": 20.745831,
      "lat": 42.48222
    }
  },
  {
    "id": 788536,
    "name": "Lumbardhi",
    "country": "XK",
    "coord": {
      "lon": 20.34667,
      "lat": 42.546669
    }
  },
  {
    "id": 788543,
    "name": "Lebushe",
    "country": "XK",
    "coord": {
      "lon": 20.290831,
      "lat": 42.563061
    }
  },
  {
    "id": 788652,
    "name": "Lipljan",
    "country": "XK",
    "coord": {
      "lon": 21.12583,
      "lat": 42.521671
    }
  },
  {
    "id": 788726,
    "name": "Leshan",
    "country": "XK",
    "coord": {
      "lon": 20.781111,
      "lat": 42.327782
    }
  },
  {
    "id": 789199,
    "name": "Kosuriq",
    "country": "XK",
    "coord": {
      "lon": 20.46472,
      "lat": 42.570278
    }
  },
  {
    "id": 789227,
    "name": "Kamenica",
    "country": "XK",
    "coord": {
      "lon": 21.58028,
      "lat": 42.57806
    }
  },
  {
    "id": 789455,
    "name": "Klina",
    "country": "XK",
    "coord": {
      "lon": 20.57778,
      "lat": 42.62167
    }
  },
  {
    "id": 789721,
    "name": "Kacanik",
    "country": "XK",
    "coord": {
      "lon": 21.259439,
      "lat": 42.231941
    }
  },
  {
    "id": 790002,
    "name": "Isniq",
    "country": "XK",
    "coord": {
      "lon": 20.30278,
      "lat": 42.557499
    }
  },
  {
    "id": 790354,
    "name": "Strellc i Eperm",
    "country": "XK",
    "coord": {
      "lon": 20.293461,
      "lat": 42.57835
    }
  },
  {
    "id": 790486,
    "name": "Lluka e Eperme",
    "country": "XK",
    "coord": {
      "lon": 20.307779,
      "lat": 42.544998
    }
  },
  {
    "id": 790701,
    "name": "Glogovac",
    "country": "XK",
    "coord": {
      "lon": 20.89389,
      "lat": 42.62833
    }
  },
  {
    "id": 790704,
    "name": "Gllogjan",
    "country": "XK",
    "coord": {
      "lon": 20.36278,
      "lat": 42.507221
    }
  },
  {
    "id": 790977,
    "name": "Dubova (Driloni)",
    "country": "XK",
    "coord": {
      "lon": 20.36972,
      "lat": 42.711941
    }
  },
  {
    "id": 791043,
    "name": "Dranoc",
    "country": "XK",
    "coord": {
      "lon": 20.292219,
      "lat": 42.51556
    }
  },
  {
    "id": 791161,
    "name": "Strellc i Ulet",
    "country": "XK",
    "coord": {
      "lon": 20.316191,
      "lat": 42.580631
    }
  },
  {
    "id": 791483,
    "name": "Gjinoc",
    "country": "XK",
    "coord": {
      "lon": 20.818609,
      "lat": 42.318329
    }
  },
  {
    "id": 792185,
    "name": "Budakovo",
    "country": "XK",
    "coord": {
      "lon": 20.924999,
      "lat": 42.355
    }
  },
  {
    "id": 793226,
    "name": "Papraqan",
    "country": "XK",
    "coord": {
      "lon": 20.33111,
      "lat": 42.55278
    }
  },
  {
    "id": 830410,
    "name": "Lloqan",
    "country": "XK",
    "coord": {
      "lon": 20.28083,
      "lat": 42.524441
    }
  },
  {
    "id": 30485,
    "name": "Dahasuways",
    "country": "YE",
    "coord": {
      "lon": 50.729439,
      "lat": 15.72389
    }
  },
  {
    "id": 30490,
    "name": "Ash Shihr",
    "country": "YE",
    "coord": {
      "lon": 49.606392,
      "lat": 14.75863
    }
  },
  {
    "id": 30543,
    "name": "Al Ghaylah",
    "country": "YE",
    "coord": {
      "lon": 45.583328,
      "lat": 14.59583
    }
  },
  {
    "id": 30616,
    "name": "Judaydah",
    "country": "YE",
    "coord": {
      "lon": 45.299622,
      "lat": 15.07512
    }
  },
  {
    "id": 30689,
    "name": "Dawran",
    "country": "YE",
    "coord": {
      "lon": 44.441959,
      "lat": 13.77436
    }
  },
  {
    "id": 30696,
    "name": "Najd al Jumai",
    "country": "YE",
    "coord": {
      "lon": 44.324139,
      "lat": 13.91581
    }
  },
  {
    "id": 30714,
    "name": "Zalmat al Alya",
    "country": "YE",
    "coord": {
      "lon": 44.09404,
      "lat": 14.1023
    }
  },
  {
    "id": 30729,
    "name": "Suq ar Rabu",
    "country": "YE",
    "coord": {
      "lon": 44.01511,
      "lat": 14.51155
    }
  },
  {
    "id": 30735,
    "name": "Ash Shuqayrah",
    "country": "YE",
    "coord": {
      "lon": 43.786362,
      "lat": 13.13452
    }
  },
  {
    "id": 30740,
    "name": "Mashraah",
    "country": "YE",
    "coord": {
      "lon": 43.99588,
      "lat": 13.53235
    }
  },
  {
    "id": 30748,
    "name": "Ar Rawnah",
    "country": "YE",
    "coord": {
      "lon": 43.80286,
      "lat": 13.75638
    }
  },
  {
    "id": 30762,
    "name": "Ar Ramadi",
    "country": "YE",
    "coord": {
      "lon": 43.784569,
      "lat": 13.95641
    }
  },
  {
    "id": 30777,
    "name": "Al Ahad",
    "country": "YE",
    "coord": {
      "lon": 43.64167,
      "lat": 14.25833
    }
  },
  {
    "id": 30788,
    "name": "Ad Dil",
    "country": "YE",
    "coord": {
      "lon": 43.818279,
      "lat": 14.67199
    }
  },
  {
    "id": 30789,
    "name": "Al Jabin",
    "country": "YE",
    "coord": {
      "lon": 43.599041,
      "lat": 14.70401
    }
  },
  {
    "id": 34703,
    "name": "Suq Sirwah",
    "country": "YE",
    "coord": {
      "lon": 45.01667,
      "lat": 15.45417
    }
  },
  {
    "id": 34717,
    "name": "Majzar",
    "country": "YE",
    "coord": {
      "lon": 44.775002,
      "lat": 15.85
    }
  },
  {
    "id": 34724,
    "name": "Bidbadah",
    "country": "YE",
    "coord": {
      "lon": 44.700001,
      "lat": 15.425
    }
  },
  {
    "id": 34821,
    "name": "Matwah",
    "country": "YE",
    "coord": {
      "lon": 43.642132,
      "lat": 15.0676
    }
  },
  {
    "id": 34827,
    "name": "Suwayr",
    "country": "YE",
    "coord": {
      "lon": 43.609859,
      "lat": 16.181801
    }
  },
  {
    "id": 34846,
    "name": "Wadarah",
    "country": "YE",
    "coord": {
      "lon": 43.483212,
      "lat": 15.71073
    }
  },
  {
    "id": 34862,
    "name": "Suq Shamar",
    "country": "YE",
    "coord": {
      "lon": 43.368061,
      "lat": 15.885
    }
  },
  {
    "id": 34886,
    "name": "Mustaba",
    "country": "YE",
    "coord": {
      "lon": 43.248951,
      "lat": 16.228161
    }
  },
  {
    "id": 34888,
    "name": "An Nazir",
    "country": "YE",
    "coord": {
      "lon": 43.26226,
      "lat": 16.909161
    }
  },
  {
    "id": 69372,
    "name": "At Tawilah",
    "country": "YE",
    "coord": {
      "lon": 43.74778,
      "lat": 15.49389
    }
  },
  {
    "id": 69426,
    "name": "Zinjibar",
    "country": "YE",
    "coord": {
      "lon": 45.38073,
      "lat": 13.12871
    }
  },
  {
    "id": 69457,
    "name": "Zarajah",
    "country": "YE",
    "coord": {
      "lon": 44.378681,
      "lat": 14.86692
    }
  },
  {
    "id": 69482,
    "name": "Az Zahir",
    "country": "YE",
    "coord": {
      "lon": 45.48333,
      "lat": 13.96667
    }
  },
  {
    "id": 69537,
    "name": "Yufrus",
    "country": "YE",
    "coord": {
      "lon": 43.947041,
      "lat": 13.45529
    }
  },
  {
    "id": 69640,
    "name": "Washhah",
    "country": "YE",
    "coord": {
      "lon": 43.41066,
      "lat": 16.307739
    }
  },
  {
    "id": 69684,
    "name": "Walan",
    "country": "YE",
    "coord": {
      "lon": 44.276409,
      "lat": 15.07021
    }
  },
  {
    "id": 69686,
    "name": "Dhi Jalal",
    "country": "YE",
    "coord": {
      "lon": 44.707539,
      "lat": 13.62378
    }
  },
  {
    "id": 69769,
    "name": "Usaylan",
    "country": "YE",
    "coord": {
      "lon": 45.82832,
      "lat": 15.03201
    }
  },
  {
    "id": 69944,
    "name": "Ubal",
    "country": "YE",
    "coord": {
      "lon": 43.544441,
      "lat": 14.98808
    }
  },
  {
    "id": 70080,
    "name": "Thamud",
    "country": "YE",
    "coord": {
      "lon": 49.916672,
      "lat": 17.299999
    }
  },
  {
    "id": 70272,
    "name": "As Suwayda",
    "country": "YE",
    "coord": {
      "lon": 45.2304,
      "lat": 13.78694
    }
  },
  {
    "id": 70346,
    "name": "Al Anan",
    "country": "YE",
    "coord": {
      "lon": 44.312519,
      "lat": 16.72188
    }
  },
  {
    "id": 70357,
    "name": "Abs",
    "country": "YE",
    "coord": {
      "lon": 43.197239,
      "lat": 16.002951
    }
  },
  {
    "id": 70551,
    "name": "Sif",
    "country": "YE",
    "coord": {
      "lon": 48.330002,
      "lat": 15.31389
    }
  },
  {
    "id": 70656,
    "name": "Shihan as Sufla",
    "country": "YE",
    "coord": {
      "lon": 52.48925,
      "lat": 17.769991
    }
  },
  {
    "id": 70677,
    "name": "Shibam",
    "country": "YE",
    "coord": {
      "lon": 43.904449,
      "lat": 15.50943
    }
  },
  {
    "id": 70759,
    "name": "Ash Sharyah",
    "country": "YE",
    "coord": {
      "lon": 45.022442,
      "lat": 14.35659
    }
  },
  {
    "id": 70808,
    "name": "Sharas",
    "country": "YE",
    "coord": {
      "lon": 43.64925,
      "lat": 15.71233
    }
  },
  {
    "id": 70910,
    "name": "Shaharat al Ghis",
    "country": "YE",
    "coord": {
      "lon": 43.702278,
      "lat": 16.184111
    }
  },
  {
    "id": 71005,
    "name": "Sayhut",
    "country": "YE",
    "coord": {
      "lon": 51.24556,
      "lat": 15.21056
    }
  },
  {
    "id": 71282,
    "name": "Sah",
    "country": "YE",
    "coord": {
      "lon": 48.850559,
      "lat": 15.57722
    }
  },
  {
    "id": 71334,
    "name": "Sadah",
    "country": "YE",
    "coord": {
      "lon": 43.763939,
      "lat": 16.94021
    }
  },
  {
    "id": 71481,
    "name": "Rihab",
    "country": "YE",
    "coord": {
      "lon": 44.188141,
      "lat": 14.22762
    }
  },
  {
    "id": 71491,
    "name": "Rada",
    "country": "YE",
    "coord": {
      "lon": 44.83709,
      "lat": 14.4151
    }
  },
  {
    "id": 71549,
    "name": "Ar Raydah",
    "country": "YE",
    "coord": {
      "lon": 50.479172,
      "lat": 15.035
    }
  },
  {
    "id": 71558,
    "name": "Raydah",
    "country": "YE",
    "coord": {
      "lon": 44.040852,
      "lat": 15.81421
    }
  },
  {
    "id": 71687,
    "name": "Rudum",
    "country": "YE",
    "coord": {
      "lon": 47.743141,
      "lat": 14.0851
    }
  },
  {
    "id": 71799,
    "name": "Qulansiyah",
    "country": "YE",
    "coord": {
      "lon": 53.48333,
      "lat": 12.68333
    }
  },
  {
    "id": 71834,
    "name": "Qishn",
    "country": "YE",
    "coord": {
      "lon": 51.681389,
      "lat": 15.42278
    }
  },
  {
    "id": 71904,
    "name": "Qatabah",
    "country": "YE",
    "coord": {
      "lon": 44.705799,
      "lat": 13.85493
    }
  },
  {
    "id": 72181,
    "name": "Nisab",
    "country": "YE",
    "coord": {
      "lon": 46.5,
      "lat": 14.51667
    }
  },
  {
    "id": 72430,
    "name": "Al Musaymir",
    "country": "YE",
    "coord": {
      "lon": 44.61528,
      "lat": 13.44389
    }
  },
  {
    "id": 72519,
    "name": "Mukayras",
    "country": "YE",
    "coord": {
      "lon": 45.670738,
      "lat": 13.94428
    }
  },
  {
    "id": 72557,
    "name": "Mudiyah",
    "country": "YE",
    "coord": {
      "lon": 46.082539,
      "lat": 13.9284
    }
  },
  {
    "id": 72561,
    "name": "Markaz Mudhaykirah",
    "country": "YE",
    "coord": {
      "lon": 43.9688,
      "lat": 13.88953
    }
  },
  {
    "id": 72647,
    "name": "Manwakh",
    "country": "YE",
    "coord": {
      "lon": 48.109169,
      "lat": 16.807779
    }
  },
  {
    "id": 72746,
    "name": "Mayfaah",
    "country": "YE",
    "coord": {
      "lon": 47.561199,
      "lat": 14.27042
    }
  },
  {
    "id": 72752,
    "name": "Maidi",
    "country": "YE",
    "coord": {
      "lon": 42.812988,
      "lat": 16.321011
    }
  },
  {
    "id": 72760,
    "name": "Mawza",
    "country": "YE",
    "coord": {
      "lon": 43.50993,
      "lat": 13.26831
    }
  },
  {
    "id": 72781,
    "name": "Mawiyah",
    "country": "YE",
    "coord": {
      "lon": 44.347679,
      "lat": 13.58294
    }
  },
  {
    "id": 72855,
    "name": "Al Jawl",
    "country": "YE",
    "coord": {
      "lon": 48.280659,
      "lat": 14.45625
    }
  },
  {
    "id": 73091,
    "name": "Manakhah",
    "country": "YE",
    "coord": {
      "lon": 43.741562,
      "lat": 15.07422
    }
  },
  {
    "id": 73100,
    "name": "Milah",
    "country": "YE",
    "coord": {
      "lon": 44.786221,
      "lat": 14.41617
    }
  },
  {
    "id": 73125,
    "name": "Al Malahit",
    "country": "YE",
    "coord": {
      "lon": 43.275822,
      "lat": 16.76848
    }
  },
  {
    "id": 73325,
    "name": "Al Mafud",
    "country": "YE",
    "coord": {
      "lon": 47.252171,
      "lat": 15.34264
    }
  },
  {
    "id": 73331,
    "name": "Mafhaq",
    "country": "YE",
    "coord": {
      "lon": 43.903042,
      "lat": 15.10162
    }
  },
  {
    "id": 73365,
    "name": "Al Madid",
    "country": "YE",
    "coord": {
      "lon": 44.47337,
      "lat": 15.64453
    }
  },
  {
    "id": 73409,
    "name": "Mabar",
    "country": "YE",
    "coord": {
      "lon": 44.293541,
      "lat": 14.79395
    }
  },
  {
    "id": 73422,
    "name": "Al Maalla",
    "country": "YE",
    "coord": {
      "lon": 45.002441,
      "lat": 12.78987
    }
  },
  {
    "id": 73504,
    "name": "Lawdar",
    "country": "YE",
    "coord": {
      "lon": 45.868591,
      "lat": 13.88282
    }
  },
  {
    "id": 73638,
    "name": "Kuhlan Afar",
    "country": "YE",
    "coord": {
      "lon": 43.719021,
      "lat": 15.73309
    }
  },
  {
    "id": 73650,
    "name": "Kuaydinah",
    "country": "YE",
    "coord": {
      "lon": 43.3372,
      "lat": 15.82104
    }
  },
  {
    "id": 73668,
    "name": "Kitaf",
    "country": "YE",
    "coord": {
      "lon": 44.109051,
      "lat": 17.031651
    }
  },
  {
    "id": 73685,
    "name": "Kilmia",
    "country": "YE",
    "coord": {
      "lon": 52.233318,
      "lat": 12.18576
    }
  },
  {
    "id": 73788,
    "name": "Khawrah",
    "country": "YE",
    "coord": {
      "lon": 46.15435,
      "lat": 14.43201
    }
  },
  {
    "id": 73861,
    "name": "Khamir",
    "country": "YE",
    "coord": {
      "lon": 43.953621,
      "lat": 15.98792
    }
  },
  {
    "id": 74116,
    "name": "Juban",
    "country": "YE",
    "coord": {
      "lon": 44.874599,
      "lat": 14.01164
    }
  },
  {
    "id": 74167,
    "name": "Jihanah",
    "country": "YE",
    "coord": {
      "lon": 44.482441,
      "lat": 15.22628
    }
  },
  {
    "id": 74185,
    "name": "Jiblah",
    "country": "YE",
    "coord": {
      "lon": 44.146679,
      "lat": 13.92162
    }
  },
  {
    "id": 74219,
    "name": "Jawf al Maqbabah",
    "country": "YE",
    "coord": {
      "lon": 45.834881,
      "lat": 13.83783
    }
  },
  {
    "id": 74368,
    "name": "Jaar",
    "country": "YE",
    "coord": {
      "lon": 45.30558,
      "lat": 13.223
    }
  },
  {
    "id": 74490,
    "name": "Huth",
    "country": "YE",
    "coord": {
      "lon": 43.96854,
      "lat": 16.23114
    }
  },
  {
    "id": 74499,
    "name": "As Salasil",
    "country": "YE",
    "coord": {
      "lon": 48.831532,
      "lat": 16.479589
    }
  },
  {
    "id": 74785,
    "name": "Al Abr",
    "country": "YE",
    "coord": {
      "lon": 47.23333,
      "lat": 16.133329
    }
  },
  {
    "id": 74906,
    "name": "Hays",
    "country": "YE",
    "coord": {
      "lon": 43.483101,
      "lat": 13.9317
    }
  },
  {
    "id": 74938,
    "name": "Hayfan",
    "country": "YE",
    "coord": {
      "lon": 44.280109,
      "lat": 13.31778
    }
  },
  {
    "id": 75000,
    "name": "Hawf",
    "country": "YE",
    "coord": {
      "lon": 53.033329,
      "lat": 16.633329
    }
  },
  {
    "id": 75034,
    "name": "Haswayn",
    "country": "YE",
    "coord": {
      "lon": 52.102219,
      "lat": 15.59194
    }
  },
  {
    "id": 75133,
    "name": "Harib",
    "country": "YE",
    "coord": {
      "lon": 45.503559,
      "lat": 14.93156
    }
  },
  {
    "id": 75163,
    "name": "Harad",
    "country": "YE",
    "coord": {
      "lon": 43.05883,
      "lat": 16.409651
    }
  },
  {
    "id": 75239,
    "name": "Hammam Ali",
    "country": "YE",
    "coord": {
      "lon": 44.147629,
      "lat": 14.66371
    }
  },
  {
    "id": 75357,
    "name": "Madinat Labus",
    "country": "YE",
    "coord": {
      "lon": 45.25,
      "lat": 13.86667
    }
  },
  {
    "id": 75427,
    "name": "Tamrida",
    "country": "YE",
    "coord": {
      "lon": 54.033329,
      "lat": 12.65
    }
  },
  {
    "id": 75504,
    "name": "Habil al Jabr",
    "country": "YE",
    "coord": {
      "lon": 44.985779,
      "lat": 13.60422
    }
  },
  {
    "id": 75508,
    "name": "Al Habilayn",
    "country": "YE",
    "coord": {
      "lon": 44.850761,
      "lat": 13.52002
    }
  },
  {
    "id": 75518,
    "name": "Habban",
    "country": "YE",
    "coord": {
      "lon": 47.076488,
      "lat": 14.35411
    }
  },
  {
    "id": 75539,
    "name": "Hababah",
    "country": "YE",
    "coord": {
      "lon": 43.875629,
      "lat": 15.54418
    }
  },
  {
    "id": 75618,
    "name": "Ghayl Ba Wazir",
    "country": "YE",
    "coord": {
      "lon": 49.366112,
      "lat": 14.77611
    }
  },
  {
    "id": 76089,
    "name": "Dhubab",
    "country": "YE",
    "coord": {
      "lon": 43.41024,
      "lat": 12.94305
    }
  },
  {
    "id": 76125,
    "name": "Dhi Naim",
    "country": "YE",
    "coord": {
      "lon": 45.448071,
      "lat": 14.10574
    }
  },
  {
    "id": 76147,
    "name": "Dhaybin",
    "country": "YE",
    "coord": {
      "lon": 44.129169,
      "lat": 15.97712
    }
  },
  {
    "id": 76362,
    "name": "Dawran ad Daydah",
    "country": "YE",
    "coord": {
      "lon": 44.206638,
      "lat": 14.73927
    }
  },
  {
    "id": 76482,
    "name": "Dar an Nasr",
    "country": "YE",
    "coord": {
      "lon": 44.016338,
      "lat": 13.55821
    }
  },
  {
    "id": 76699,
    "name": "Burum",
    "country": "YE",
    "coord": {
      "lon": 48.979721,
      "lat": 14.36361
    }
  },
  {
    "id": 76927,
    "name": "Bayt Adhaqah",
    "country": "YE",
    "coord": {
      "lon": 43.702278,
      "lat": 15.61576
    }
  },
  {
    "id": 76930,
    "name": "As Suq al Jadid",
    "country": "YE",
    "coord": {
      "lon": 44.062038,
      "lat": 15.82496
    }
  },
  {
    "id": 77017,
    "name": "Bayhan",
    "country": "YE",
    "coord": {
      "lon": 45.718891,
      "lat": 14.80067
    }
  },
  {
    "id": 77278,
    "name": "Bani Hujjaj",
    "country": "YE",
    "coord": {
      "lon": 43.316669,
      "lat": 15.41667
    }
  },
  {
    "id": 77307,
    "name": "Bani Bakr",
    "country": "YE",
    "coord": {
      "lon": 45.26667,
      "lat": 13.93333
    }
  },
  {
    "id": 77504,
    "name": "Az Zuhrah",
    "country": "YE",
    "coord": {
      "lon": 42.995819,
      "lat": 15.72377
    }
  },
  {
    "id": 77515,
    "name": "Az Zaydiyah",
    "country": "YE",
    "coord": {
      "lon": 43.008121,
      "lat": 15.32851
    }
  },
  {
    "id": 77529,
    "name": "Az Zahir",
    "country": "YE",
    "coord": {
      "lon": 44.488178,
      "lat": 16.317989
    }
  },
  {
    "id": 77594,
    "name": "Al Hajab",
    "country": "YE",
    "coord": {
      "lon": 45.529041,
      "lat": 14.85192
    }
  },
  {
    "id": 77636,
    "name": "Al Awabil",
    "country": "YE",
    "coord": {
      "lon": 44.864311,
      "lat": 13.83754
    }
  },
  {
    "id": 77646,
    "name": "At Turbah",
    "country": "YE",
    "coord": {
      "lon": 44.124149,
      "lat": 13.2127
    }
  },
  {
    "id": 77655,
    "name": "Al Tuhayta",
    "country": "YE",
    "coord": {
      "lon": 43.226372,
      "lat": 14.18356
    }
  },
  {
    "id": 77662,
    "name": "At Tawahi",
    "country": "YE",
    "coord": {
      "lon": 44.980202,
      "lat": 12.78471
    }
  },
  {
    "id": 77772,
    "name": "As Sudah",
    "country": "YE",
    "coord": {
      "lon": 43.78083,
      "lat": 15.95861
    }
  },
  {
    "id": 77791,
    "name": "As Sayyani",
    "country": "YE",
    "coord": {
      "lon": 44.17395,
      "lat": 13.84266
    }
  },
  {
    "id": 77800,
    "name": "As Sawmaah",
    "country": "YE",
    "coord": {
      "lon": 45.801022,
      "lat": 14.08505
    }
  },
  {
    "id": 77803,
    "name": "Al Bilad",
    "country": "YE",
    "coord": {
      "lon": 49.291672,
      "lat": 16.13806
    }
  },
  {
    "id": 77809,
    "name": "As Sawadiyah",
    "country": "YE",
    "coord": {
      "lon": 45.221481,
      "lat": 14.30113
    }
  },
  {
    "id": 77843,
    "name": "As Salif",
    "country": "YE",
    "coord": {
      "lon": 42.67067,
      "lat": 15.30558
    }
  },
  {
    "id": 77862,
    "name": "Said",
    "country": "YE",
    "coord": {
      "lon": 46.872921,
      "lat": 14.33011
    }
  },
  {
    "id": 77872,
    "name": "As Safaqayn",
    "country": "YE",
    "coord": {
      "lon": 43.421211,
      "lat": 15.37897
    }
  },
  {
    "id": 77881,
    "name": "As Saddah",
    "country": "YE",
    "coord": {
      "lon": 44.421391,
      "lat": 14.1221
    }
  },
  {
    "id": 77940,
    "name": "Ash Shaykh Uthman",
    "country": "YE",
    "coord": {
      "lon": 44.993092,
      "lat": 12.87678
    }
  },
  {
    "id": 77946,
    "name": "Ash Shatt",
    "country": "YE",
    "coord": {
      "lon": 44.035709,
      "lat": 12.89357
    }
  },
  {
    "id": 77980,
    "name": "Ash Shahil",
    "country": "YE",
    "coord": {
      "lon": 43.404949,
      "lat": 15.86656
    }
  },
  {
    "id": 77985,
    "name": "Ash Shaghadirah",
    "country": "YE",
    "coord": {
      "lon": 43.520561,
      "lat": 15.62
    }
  },
  {
    "id": 78019,
    "name": "Asdas",
    "country": "YE",
    "coord": {
      "lon": 45.081509,
      "lat": 15.76601
    }
  },
  {
    "id": 78112,
    "name": "Marbat",
    "country": "YE",
    "coord": {
      "lon": 46.388111,
      "lat": 14.20567
    }
  },
  {
    "id": 78137,
    "name": "Ar Rawdah",
    "country": "YE",
    "coord": {
      "lon": 44.223991,
      "lat": 15.43251
    }
  },
  {
    "id": 78141,
    "name": "Ar Rawdah",
    "country": "YE",
    "coord": {
      "lon": 47.276379,
      "lat": 14.46725
    }
  },
  {
    "id": 78379,
    "name": "An Nadirah",
    "country": "YE",
    "coord": {
      "lon": 44.47559,
      "lat": 14.09628
    }
  },
  {
    "id": 78428,
    "name": "Amran",
    "country": "YE",
    "coord": {
      "lon": 43.943851,
      "lat": 15.6594
    }
  },
  {
    "id": 78448,
    "name": "Amd",
    "country": "YE",
    "coord": {
      "lon": 47.98333,
      "lat": 15.3
    }
  },
  {
    "id": 78471,
    "name": "Al Wuday",
    "country": "YE",
    "coord": {
      "lon": 46.01786,
      "lat": 13.7721
    }
  },
  {
    "id": 78543,
    "name": "Al Udayn",
    "country": "YE",
    "coord": {
      "lon": 43.996731,
      "lat": 13.96918
    }
  },
  {
    "id": 78566,
    "name": "Al Qurh",
    "country": "YE",
    "coord": {
      "lon": 51.48333,
      "lat": 16.73333
    }
  },
  {
    "id": 78675,
    "name": "Al Qanawis",
    "country": "YE",
    "coord": {
      "lon": 43.134331,
      "lat": 15.49277
    }
  },
  {
    "id": 78699,
    "name": "Al Qaflah",
    "country": "YE",
    "coord": {
      "lon": 43.767921,
      "lat": 16.31897
    }
  },
  {
    "id": 78708,
    "name": "Qaryat al Qabil",
    "country": "YE",
    "coord": {
      "lon": 44.127682,
      "lat": 15.45033
    }
  },
  {
    "id": 78713,
    "name": "Al Maudah",
    "country": "YE",
    "coord": {
      "lon": 45.387321,
      "lat": 14.21055
    }
  },
  {
    "id": 78742,
    "name": "Al Munirah",
    "country": "YE",
    "coord": {
      "lon": 42.929359,
      "lat": 15.32024
    }
  },
  {
    "id": 78776,
    "name": "Al Misrakh",
    "country": "YE",
    "coord": {
      "lon": 44.020432,
      "lat": 13.46059
    }
  },
  {
    "id": 78814,
    "name": "Al Milah",
    "country": "YE",
    "coord": {
      "lon": 44.825562,
      "lat": 13.42611
    }
  },
  {
    "id": 78823,
    "name": "Al Mighlaf",
    "country": "YE",
    "coord": {
      "lon": 43.18914,
      "lat": 15.2871
    }
  },
  {
    "id": 78905,
    "name": "Markaz al Marir",
    "country": "YE",
    "coord": {
      "lon": 43.59547,
      "lat": 13.98178
    }
  },
  {
    "id": 78909,
    "name": "Al Marawiah",
    "country": "YE",
    "coord": {
      "lon": 43.153912,
      "lat": 14.83069
    }
  },
  {
    "id": 78929,
    "name": "Al Mansuriyah",
    "country": "YE",
    "coord": {
      "lon": 43.299221,
      "lat": 14.6856
    }
  },
  {
    "id": 78931,
    "name": "Al Mansurah",
    "country": "YE",
    "coord": {
      "lon": 44.981659,
      "lat": 12.86019
    }
  },
  {
    "id": 78964,
    "name": "Al Makhadir",
    "country": "YE",
    "coord": {
      "lon": 44.19796,
      "lat": 14.12224
    }
  },
  {
    "id": 78977,
    "name": "Al Mahwit",
    "country": "YE",
    "coord": {
      "lon": 43.544811,
      "lat": 15.47007
    }
  },
  {
    "id": 78991,
    "name": "Al Mahfid",
    "country": "YE",
    "coord": {
      "lon": 46.91328,
      "lat": 14.05847
    }
  },
  {
    "id": 79006,
    "name": "Al Mahabishah",
    "country": "YE",
    "coord": {
      "lon": 43.435871,
      "lat": 15.94758
    }
  },
  {
    "id": 79050,
    "name": "Al Luhayyah",
    "country": "YE",
    "coord": {
      "lon": 42.690929,
      "lat": 15.70309
    }
  },
  {
    "id": 79088,
    "name": "Kirsh",
    "country": "YE",
    "coord": {
      "lon": 44.490459,
      "lat": 13.36473
    }
  },
  {
    "id": 79131,
    "name": "Al Khawkhah",
    "country": "YE",
    "coord": {
      "lon": 43.249298,
      "lat": 13.8071
    }
  },
  {
    "id": 79219,
    "name": "Al Jurbah",
    "country": "YE",
    "coord": {
      "lon": 45.158939,
      "lat": 13.7915
    }
  },
  {
    "id": 79284,
    "name": "Al Jarrahi",
    "country": "YE",
    "coord": {
      "lon": 43.388451,
      "lat": 14.13254
    }
  },
  {
    "id": 79384,
    "name": "Al Husayn",
    "country": "YE",
    "coord": {
      "lon": 44.76886,
      "lat": 13.79199
    }
  },
  {
    "id": 79393,
    "name": "Huraydah",
    "country": "YE",
    "coord": {
      "lon": 48.182781,
      "lat": 15.59861
    }
  },
  {
    "id": 79455,
    "name": "Al Hazm",
    "country": "YE",
    "coord": {
      "lon": 44.77692,
      "lat": 16.164061
    }
  },
  {
    "id": 79478,
    "name": "Al Qatn",
    "country": "YE",
    "coord": {
      "lon": 48.455559,
      "lat": 15.84056
    }
  },
  {
    "id": 79531,
    "name": "Al Harf",
    "country": "YE",
    "coord": {
      "lon": 44.094212,
      "lat": 16.363951
    }
  },
  {
    "id": 79609,
    "name": "Hajar al Mushaikh",
    "country": "YE",
    "coord": {
      "lon": 47.833328,
      "lat": 16.133329
    }
  },
  {
    "id": 79700,
    "name": "Al Ghayzah",
    "country": "YE",
    "coord": {
      "lon": 52.176048,
      "lat": 16.20787
    }
  },
  {
    "id": 79845,
    "name": "Al Batinah",
    "country": "YE",
    "coord": {
      "lon": 48.433331,
      "lat": 15.48333
    }
  },
  {
    "id": 79967,
    "name": "Al Aqir",
    "country": "YE",
    "coord": {
      "lon": 45.91156,
      "lat": 14.56816
    }
  },
  {
    "id": 80105,
    "name": "Ahwar",
    "country": "YE",
    "coord": {
      "lon": 46.713669,
      "lat": 13.52019
    }
  },
  {
    "id": 80309,
    "name": "Ad Durayhimi",
    "country": "YE",
    "coord": {
      "lon": 43.05505,
      "lat": 14.63702
    }
  },
  {
    "id": 80331,
    "name": "Ad Dis ash Sharqiyah",
    "country": "YE",
    "coord": {
      "lon": 49.947781,
      "lat": 14.90806
    }
  },
  {
    "id": 80336,
    "name": "Ad Dimnah",
    "country": "YE",
    "coord": {
      "lon": 44.181679,
      "lat": 13.45398
    }
  },
  {
    "id": 80379,
    "name": "Ad Dann",
    "country": "YE",
    "coord": {
      "lon": 43.852749,
      "lat": 14.3518
    }
  },
  {
    "id": 80383,
    "name": "Az Zaliah",
    "country": "YE",
    "coord": {
      "lon": 48.01667,
      "lat": 15.01667
    }
  },
  {
    "id": 80384,
    "name": "Dhalie",
    "country": "YE",
    "coord": {
      "lon": 44.731369,
      "lat": 13.69572
    }
  },
  {
    "id": 80393,
    "name": "Dhahi",
    "country": "YE",
    "coord": {
      "lon": 43.06974,
      "lat": 15.21467
    }
  },
  {
    "id": 400734,
    "name": "Markaz Bilad at Taam",
    "country": "YE",
    "coord": {
      "lon": 43.536388,
      "lat": 14.83361
    }
  },
  {
    "id": 401000,
    "name": "Al Jumah",
    "country": "YE",
    "coord": {
      "lon": 43.96489,
      "lat": 14.73779
    }
  },
  {
    "id": 401019,
    "name": "Al Hadiyah",
    "country": "YE",
    "coord": {
      "lon": 43.57045,
      "lat": 14.52638
    }
  },
  {
    "id": 401023,
    "name": "Kusmah",
    "country": "YE",
    "coord": {
      "lon": 43.636761,
      "lat": 14.58175
    }
  },
  {
    "id": 401653,
    "name": "Riqab",
    "country": "YE",
    "coord": {
      "lon": 43.464909,
      "lat": 14.88596
    }
  },
  {
    "id": 401672,
    "name": "As Sukhnah",
    "country": "YE",
    "coord": {
      "lon": 43.436199,
      "lat": 14.79408
    }
  },
  {
    "id": 402074,
    "name": "Ar Rujum",
    "country": "YE",
    "coord": {
      "lon": 43.632259,
      "lat": 15.45776
    }
  },
  {
    "id": 402470,
    "name": "Al Khamis",
    "country": "YE",
    "coord": {
      "lon": 43.511219,
      "lat": 15.18533
    }
  },
  {
    "id": 402753,
    "name": "Al Urr",
    "country": "YE",
    "coord": {
      "lon": 43.888359,
      "lat": 15.24648
    }
  },
  {
    "id": 403270,
    "name": "Al Maghrabah",
    "country": "YE",
    "coord": {
      "lon": 43.666672,
      "lat": 15.87722
    }
  },
  {
    "id": 403271,
    "name": "As Sararah",
    "country": "YE",
    "coord": {
      "lon": 43.869968,
      "lat": 15.79449
    }
  },
  {
    "id": 403272,
    "name": "An Nasirah",
    "country": "YE",
    "coord": {
      "lon": 43.809021,
      "lat": 15.77277
    }
  },
  {
    "id": 403316,
    "name": "Mabyan",
    "country": "YE",
    "coord": {
      "lon": 43.557011,
      "lat": 15.73773
    }
  },
  {
    "id": 403754,
    "name": "Matnah",
    "country": "YE",
    "coord": {
      "lon": 44.024719,
      "lat": 15.25333
    }
  },
  {
    "id": 404914,
    "name": "Al Hayfah",
    "country": "YE",
    "coord": {
      "lon": 44.237881,
      "lat": 15.73494
    }
  },
  {
    "id": 404915,
    "name": "Bayt Marran",
    "country": "YE",
    "coord": {
      "lon": 44.205299,
      "lat": 15.69312
    }
  },
  {
    "id": 406072,
    "name": "Al Nashmah",
    "country": "YE",
    "coord": {
      "lon": 43.96833,
      "lat": 13.39028
    }
  },
  {
    "id": 406635,
    "name": "Al Hashwah",
    "country": "YE",
    "coord": {
      "lon": 44.276218,
      "lat": 16.90641
    }
  },
  {
    "id": 406662,
    "name": "Saqayn",
    "country": "YE",
    "coord": {
      "lon": 43.52499,
      "lat": 16.877001
    }
  },
  {
    "id": 406737,
    "name": "Al Mahjal",
    "country": "YE",
    "coord": {
      "lon": 44.847691,
      "lat": 16.711691
    }
  },
  {
    "id": 406761,
    "name": "Rajuzah",
    "country": "YE",
    "coord": {
      "lon": 44.414539,
      "lat": 16.70056
    }
  },
  {
    "id": 406845,
    "name": "Al Khirab",
    "country": "YE",
    "coord": {
      "lon": 44.290482,
      "lat": 16.554399
    }
  },
  {
    "id": 406884,
    "name": "Al Humaydat",
    "country": "YE",
    "coord": {
      "lon": 44.430279,
      "lat": 16.485661
    }
  },
  {
    "id": 407014,
    "name": "Al Madan",
    "country": "YE",
    "coord": {
      "lon": 43.643829,
      "lat": 16.224131
    }
  },
  {
    "id": 407024,
    "name": "Al Ashshah",
    "country": "YE",
    "coord": {
      "lon": 43.854759,
      "lat": 16.256519
    }
  },
  {
    "id": 407036,
    "name": "Hasan Bini Sad",
    "country": "YE",
    "coord": {
      "lon": 44.47728,
      "lat": 16.27293
    }
  },
  {
    "id": 407042,
    "name": "Al Matun",
    "country": "YE",
    "coord": {
      "lon": 44.584759,
      "lat": 16.230631
    }
  },
  {
    "id": 407048,
    "name": "Al Maslub",
    "country": "YE",
    "coord": {
      "lon": 44.626129,
      "lat": 16.182711
    }
  },
  {
    "id": 407049,
    "name": "Al Ghayl",
    "country": "YE",
    "coord": {
      "lon": 44.68005,
      "lat": 16.10774
    }
  },
  {
    "id": 407094,
    "name": "Al Jamimah",
    "country": "YE",
    "coord": {
      "lon": 43.59647,
      "lat": 16.01787
    }
  },
  {
    "id": 407096,
    "name": "Habur",
    "country": "YE",
    "coord": {
      "lon": 43.706989,
      "lat": 16.05097
    }
  },
  {
    "id": 407129,
    "name": "Ar Rawd",
    "country": "YE",
    "coord": {
      "lon": 44.81012,
      "lat": 16.061449
    }
  },
  {
    "id": 407690,
    "name": "Ar Rubu",
    "country": "YE",
    "coord": {
      "lon": 43.869011,
      "lat": 13.78024
    }
  },
  {
    "id": 407716,
    "name": "Maqbanah",
    "country": "YE",
    "coord": {
      "lon": 43.687302,
      "lat": 13.66394
    }
  },
  {
    "id": 408124,
    "name": "Dubah",
    "country": "YE",
    "coord": {
      "lon": 44.131081,
      "lat": 14.49052
    }
  },
  {
    "id": 408342,
    "name": "Ar Radai",
    "country": "YE",
    "coord": {
      "lon": 44.39299,
      "lat": 14.01708
    }
  },
  {
    "id": 408801,
    "name": "Al Mayfaah",
    "country": "YE",
    "coord": {
      "lon": 44.54866,
      "lat": 14.46392
    }
  },
  {
    "id": 408846,
    "name": "Ar Radmah",
    "country": "YE",
    "coord": {
      "lon": 44.586571,
      "lat": 14.21973
    }
  },
  {
    "id": 408866,
    "name": "Hammam Damt",
    "country": "YE",
    "coord": {
      "lon": 44.670059,
      "lat": 14.09031
    }
  },
  {
    "id": 408883,
    "name": "Zakhim",
    "country": "YE",
    "coord": {
      "lon": 44.68504,
      "lat": 14.29496
    }
  },
  {
    "id": 408970,
    "name": "Maswarah",
    "country": "YE",
    "coord": {
      "lon": 45.726231,
      "lat": 14.34399
    }
  },
  {
    "id": 409051,
    "name": "Tawr al Bahah",
    "country": "YE",
    "coord": {
      "lon": 44.29966,
      "lat": 13.18179
    }
  },
  {
    "id": 410914,
    "name": "Kushar",
    "country": "YE",
    "coord": {
      "lon": 43.421021,
      "lat": 16.15523
    }
  },
  {
    "id": 410915,
    "name": "Aslam",
    "country": "YE",
    "coord": {
      "lon": 43.32745,
      "lat": 16.05961
    }
  },
  {
    "id": 411056,
    "name": "Haydan",
    "country": "YE",
    "coord": {
      "lon": 43.43372,
      "lat": 16.77899
    }
  },
  {
    "id": 413170,
    "name": "Al Miftah",
    "country": "YE",
    "coord": {
      "lon": 43.46381,
      "lat": 15.97431
    }
  },
  {
    "id": 7341410,
    "name": "Mudghil",
    "country": "YE",
    "coord": {
      "lon": 45.040131,
      "lat": 15.59858
    }
  },
  {
    "id": 7341563,
    "name": "Al Harajah",
    "country": "YE",
    "coord": {
      "lon": 44.665352,
      "lat": 15.48818
    }
  },
  {
    "id": 7344394,
    "name": "Bani al Awwam",
    "country": "YE",
    "coord": {
      "lon": 43.587269,
      "lat": 15.58119
    }
  },
  {
    "id": 7344569,
    "name": "Bani an Nahari",
    "country": "YE",
    "coord": {
      "lon": 43.556332,
      "lat": 15.63981
    }
  },
  {
    "id": 7345723,
    "name": "Al Hijrah",
    "country": "YE",
    "coord": {
      "lon": 43.38718,
      "lat": 17.29788
    }
  },
  {
    "id": 7345827,
    "name": "Suq al Khamis",
    "country": "YE",
    "coord": {
      "lon": 43.288109,
      "lat": 17.181259
    }
  },
  {
    "id": 7346082,
    "name": "Al Mashaf",
    "country": "YE",
    "coord": {
      "lon": 43.197811,
      "lat": 16.85836
    }
  },
  {
    "id": 7346660,
    "name": "Al Kharab",
    "country": "YE",
    "coord": {
      "lon": 43.338879,
      "lat": 16.991289
    }
  },
  {
    "id": 7354697,
    "name": "Al Ayn",
    "country": "YE",
    "coord": {
      "lon": 44.092079,
      "lat": 13.33005
    }
  },
  {
    "id": 7356864,
    "name": "Qaryat ad Dais",
    "country": "YE",
    "coord": {
      "lon": 44.274899,
      "lat": 13.9877
    }
  },
  {
    "id": 7360069,
    "name": "Hazm al Udayn",
    "country": "YE",
    "coord": {
      "lon": 44.00526,
      "lat": 14.02743
    }
  },
  {
    "id": 7363900,
    "name": "An Najd",
    "country": "YE",
    "coord": {
      "lon": 45.295959,
      "lat": 14.42152
    }
  },
  {
    "id": 7364022,
    "name": "Rahabah al Kawlah",
    "country": "YE",
    "coord": {
      "lon": 44.989182,
      "lat": 14.89574
    }
  },
  {
    "id": 7364546,
    "name": "Al Amud",
    "country": "YE",
    "coord": {
      "lon": 45.20676,
      "lat": 14.72103
    }
  },
  {
    "id": 7364784,
    "name": "Al Aqabah",
    "country": "YE",
    "coord": {
      "lon": 44.786991,
      "lat": 14.27179
    }
  },
  {
    "id": 7364913,
    "name": "Al Qurayshiyah",
    "country": "YE",
    "coord": {
      "lon": 44.85358,
      "lat": 14.5122
    }
  },
  {
    "id": 7367232,
    "name": "Hawrah",
    "country": "YE",
    "coord": {
      "lon": 44.145802,
      "lat": 13.35751
    }
  },
  {
    "id": 7683765,
    "name": "Ash Shawati",
    "country": "YE",
    "coord": {
      "lon": 43.812649,
      "lat": 16.78314
    }
  },
  {
    "id": 7792745,
    "name": "Al Hamdi",
    "country": "YE",
    "coord": {
      "lon": 48.779652,
      "lat": 15.94727
    }
  },
  {
    "id": 7792748,
    "name": "At Tahalif",
    "country": "YE",
    "coord": {
      "lon": 48.7864,
      "lat": 15.93786
    }
  },
  {
    "id": 7792750,
    "name": "Suhayl Shibam",
    "country": "YE",
    "coord": {
      "lon": 48.638641,
      "lat": 15.91448
    }
  },
  {
    "id": 7890531,
    "name": "Al Khaniq",
    "country": "YE",
    "coord": {
      "lon": 44.18158,
      "lat": 15.50253
    }
  },
  {
    "id": 7928383,
    "name": "Bir Hat",
    "country": "YE",
    "coord": {
      "lon": 52.095661,
      "lat": 17.32197
    }
  },
  {
    "id": 7928384,
    "name": "Hadadah",
    "country": "YE",
    "coord": {
      "lon": 44.274609,
      "lat": 13.17535
    }
  },
  {
    "id": 7930439,
    "name": "Rimat",
    "country": "YE",
    "coord": {
      "lon": 50.577888,
      "lat": 17.45532
    }
  },
  {
    "id": 7930440,
    "name": "Rumah",
    "country": "YE",
    "coord": {
      "lon": 50.577702,
      "lat": 17.455481
    }
  },
  {
    "id": 7931038,
    "name": "Al Shiruj",
    "country": "YE",
    "coord": {
      "lon": 47.76926,
      "lat": 14.68526
    }
  },
  {
    "id": 7931039,
    "name": "Jawl al Majma",
    "country": "YE",
    "coord": {
      "lon": 47.02763,
      "lat": 14.93278
    }
  },
  {
    "id": 7931040,
    "name": "Suq Sibah",
    "country": "YE",
    "coord": {
      "lon": 45.3923,
      "lat": 13.81436
    }
  },
  {
    "id": 7931041,
    "name": "Al Hazm",
    "country": "YE",
    "coord": {
      "lon": 45.609619,
      "lat": 14.68919
    }
  },
  {
    "id": 7931042,
    "name": "Al Aqta",
    "country": "YE",
    "coord": {
      "lon": 45.351231,
      "lat": 14.66217
    }
  },
  {
    "id": 8015577,
    "name": "Baqim as Suq",
    "country": "YE",
    "coord": {
      "lon": 43.477428,
      "lat": 17.397129
    }
  },
  {
    "id": 921900,
    "name": "Dzaoudzi",
    "country": "YT",
    "coord": {
      "lon": 45.269939,
      "lat": -12.7887
    }
  },
  {
    "id": 921917,
    "name": "Dembeni",
    "country": "YT",
    "coord": {
      "lon": 45.184361,
      "lat": -12.8436
    }
  },
  {
    "id": 1090119,
    "name": "Bandraboua",
    "country": "YT",
    "coord": {
      "lon": 45.122311,
      "lat": -12.7044
    }
  },
  {
    "id": 1090161,
    "name": "MTsangamouji",
    "country": "YT",
    "coord": {
      "lon": 45.083611,
      "lat": -12.75944
    }
  },
  {
    "id": 1090311,
    "name": "Ouangani",
    "country": "YT",
    "coord": {
      "lon": 45.136108,
      "lat": -12.84639
    }
  },
  {
    "id": 1090340,
    "name": "Sada",
    "country": "YT",
    "coord": {
      "lon": 45.102051,
      "lat": -12.85055
    }
  },
  {
    "id": 1090467,
    "name": "Boueni",
    "country": "YT",
    "coord": {
      "lon": 45.076111,
      "lat": -12.9025
    }
  },
  {
    "id": 1090476,
    "name": "Kani Keli",
    "country": "YT",
    "coord": {
      "lon": 45.103329,
      "lat": -12.95361
    }
  },
  {
    "id": 939608,
    "name": "Winburg",
    "country": "ZA",
    "coord": {
      "lon": 27.009331,
      "lat": -28.518049
    }
  },
  {
    "id": 939676,
    "name": "Willowmore",
    "country": "ZA",
    "coord": {
      "lon": 23.48954,
      "lat": -33.292648
    }
  },
  {
    "id": 940186,
    "name": "Whittlesea",
    "country": "ZA",
    "coord": {
      "lon": 26.824369,
      "lat": -32.17588
    }
  },
  {
    "id": 942701,
    "name": "Vrede",
    "country": "ZA",
    "coord": {
      "lon": 29.16585,
      "lat": -27.42573
    }
  },
  {
    "id": 944540,
    "name": "Ventersburg",
    "country": "ZA",
    "coord": {
      "lon": 27.13814,
      "lat": -28.085609
    }
  },
  {
    "id": 945813,
    "name": "Utrecht",
    "country": "ZA",
    "coord": {
      "lon": 30.321659,
      "lat": -27.658621
    }
  },
  {
    "id": 949026,
    "name": "Thulamahashi",
    "country": "ZA",
    "coord": {
      "lon": 31.19939,
      "lat": -24.72459
    }
  },
  {
    "id": 951441,
    "name": "Sundumbili",
    "country": "ZA",
    "coord": {
      "lon": 31.39752,
      "lat": -29.133711
    }
  },
  {
    "id": 964090,
    "name": "Prieska",
    "country": "ZA",
    "coord": {
      "lon": 22.747419,
      "lat": -29.664089
    }
  },
  {
    "id": 964408,
    "name": "Port Saint Johns",
    "country": "ZA",
    "coord": {
      "lon": 29.544769,
      "lat": -31.62291
    }
  },
  {
    "id": 967580,
    "name": "Orange Farm",
    "country": "ZA",
    "coord": {
      "lon": 27.866671,
      "lat": -26.48333
    }
  },
  {
    "id": 972673,
    "name": "Muldersdriseloop",
    "country": "ZA",
    "coord": {
      "lon": 27.83798,
      "lat": -26.03673
    }
  },
  {
    "id": 974222,
    "name": "Mooirivier",
    "country": "ZA",
    "coord": {
      "lon": 29.9946,
      "lat": -29.208241
    }
  },
  {
    "id": 974719,
    "name": "Molteno",
    "country": "ZA",
    "coord": {
      "lon": 26.362459,
      "lat": -31.396761
    }
  },
  {
    "id": 975144,
    "name": "Modderfontein",
    "country": "ZA",
    "coord": {
      "lon": 28.16534,
      "lat": -26.08909
    }
  },
  {
    "id": 978677,
    "name": "Marquard",
    "country": "ZA",
    "coord": {
      "lon": 27.430479,
      "lat": -28.66449
    }
  },
  {
    "id": 979365,
    "name": "Mankoeng",
    "country": "ZA",
    "coord": {
      "lon": 29.816669,
      "lat": -23.9
    }
  },
  {
    "id": 986134,
    "name": "Kuruman",
    "country": "ZA",
    "coord": {
      "lon": 23.432461,
      "lat": -27.4524
    }
  },
  {
    "id": 987875,
    "name": "Koppies",
    "country": "ZA",
    "coord": {
      "lon": 27.574221,
      "lat": -27.241791
    }
  },
  {
    "id": 994023,
    "name": "Jan Kempdorp",
    "country": "ZA",
    "coord": {
      "lon": 24.830521,
      "lat": -27.922461
    }
  },
  {
    "id": 994939,
    "name": "Ilinge",
    "country": "ZA",
    "coord": {
      "lon": 27.042669,
      "lat": -31.976761
    }
  },
  {
    "id": 995573,
    "name": "Hoopstad",
    "country": "ZA",
    "coord": {
      "lon": 25.908331,
      "lat": -27.832741
    }
  },
  {
    "id": 1000006,
    "name": "Greytown",
    "country": "ZA",
    "coord": {
      "lon": 30.592791,
      "lat": -29.064159
    }
  },
  {
    "id": 1003462,
    "name": "GAKGAPANE",
    "country": "ZA",
    "coord": {
      "lon": 30.216669,
      "lat": -23.633329
    }
  },
  {
    "id": 1006420,
    "name": "Ekuvukeni",
    "country": "ZA",
    "coord": {
      "lon": 30.15513,
      "lat": -28.46752
    }
  },
  {
    "id": 1008858,
    "name": "Dordrecht",
    "country": "ZA",
    "coord": {
      "lon": 27.04878,
      "lat": -31.372
    }
  },
  {
    "id": 1010962,
    "name": "Deneysville",
    "country": "ZA",
    "coord": {
      "lon": 28.097071,
      "lat": -26.8908
    }
  },
  {
    "id": 1011918,
    "name": "Danielskuil",
    "country": "ZA",
    "coord": {
      "lon": 23.539511,
      "lat": -28.18873
    }
  },
  {
    "id": 1013076,
    "name": "Colesberg",
    "country": "ZA",
    "coord": {
      "lon": 25.097179,
      "lat": -30.71999
    }
  },
  {
    "id": 1013266,
    "name": "Clocolan",
    "country": "ZA",
    "coord": {
      "lon": 27.565559,
      "lat": -28.91367
    }
  },
  {
    "id": 1014034,
    "name": "Carnarvon",
    "country": "ZA",
    "coord": {
      "lon": 22.13303,
      "lat": -30.968269
    }
  },
  {
    "id": 1014653,
    "name": "Burgersdorp",
    "country": "ZA",
    "coord": {
      "lon": 26.328621,
      "lat": -30.99766
    }
  },
  {
    "id": 1015694,
    "name": "Breyten",
    "country": "ZA",
    "coord": {
      "lon": 29.986959,
      "lat": -26.30176
    }
  },
  {
    "id": 1015776,
    "name": "Bredasdorp",
    "country": "ZA",
    "coord": {
      "lon": 20.04031,
      "lat": -34.53215
    }
  },
  {
    "id": 1020066,
    "name": "Berea",
    "country": "ZA",
    "coord": {
      "lon": 30.99337,
      "lat": -29.851851
    }
  },
  {
    "id": 1020340,
    "name": "Belfast",
    "country": "ZA",
    "coord": {
      "lon": 30.03504,
      "lat": -25.689911
    }
  },
  {
    "id": 1023332,
    "name": "Alice",
    "country": "ZA",
    "coord": {
      "lon": 26.8344,
      "lat": -32.787491
    }
  },
  {
    "id": 1023656,
    "name": "Adelaide",
    "country": "ZA",
    "coord": {
      "lon": 26.295641,
      "lat": -32.70747
    }
  },
  {
    "id": 3362024,
    "name": "Rosebank",
    "country": "ZA",
    "coord": {
      "lon": 18.474171,
      "lat": -33.955559
    }
  },
  {
    "id": 3369056,
    "name": "Constantia",
    "country": "ZA",
    "coord": {
      "lon": 18.418329,
      "lat": -34.031391
    }
  },
  {
    "id": 3369098,
    "name": "Claremont",
    "country": "ZA",
    "coord": {
      "lon": 18.465281,
      "lat": -33.98056
    }
  },
  {
    "id": 6942529,
    "name": "Sunset Beach",
    "country": "ZA",
    "coord": {
      "lon": 18.49231,
      "lat": -33.853951
    }
  },
  {
    "id": 175555,
    "name": "Nakonde",
    "country": "ZM",
    "coord": {
      "lon": 32.744999,
      "lat": -9.34213
    }
  },
  {
    "id": 175961,
    "name": "Mpulungu",
    "country": "ZM",
    "coord": {
      "lon": 31.11405,
      "lat": -8.76234
    }
  },
  {
    "id": 175967,
    "name": "Mporokoso",
    "country": "ZM",
    "coord": {
      "lon": 30.12501,
      "lat": -9.37272
    }
  },
  {
    "id": 176758,
    "name": "Kaputa",
    "country": "ZM",
    "coord": {
      "lon": 29.661921,
      "lat": -8.46887
    }
  },
  {
    "id": 897456,
    "name": "Sinazongwe",
    "country": "ZM",
    "coord": {
      "lon": 27.46179,
      "lat": -17.2614
    }
  },
  {
    "id": 898912,
    "name": "Serenje",
    "country": "ZM",
    "coord": {
      "lon": 30.23522,
      "lat": -13.23251
    }
  },
  {
    "id": 900056,
    "name": "Nyimba",
    "country": "ZM",
    "coord": {
      "lon": 30.814899,
      "lat": -14.55656
    }
  },
  {
    "id": 901766,
    "name": "Namwala",
    "country": "ZM",
    "coord": {
      "lon": 26.438391,
      "lat": -15.75042
    }
  },
  {
    "id": 902344,
    "name": "Nakambala",
    "country": "ZM",
    "coord": {
      "lon": 27.77994,
      "lat": -15.83244
    }
  },
  {
    "id": 902620,
    "name": "Mwinilunga",
    "country": "ZM",
    "coord": {
      "lon": 24.42926,
      "lat": -11.73584
    }
  },
  {
    "id": 902721,
    "name": "Mwense",
    "country": "ZM",
    "coord": {
      "lon": 28.698,
      "lat": -10.38446
    }
  },
  {
    "id": 904241,
    "name": "Mungwi",
    "country": "ZM",
    "coord": {
      "lon": 31.369419,
      "lat": -10.1732
    }
  },
  {
    "id": 905382,
    "name": "Mufumbwe",
    "country": "ZM",
    "coord": {
      "lon": 24.799999,
      "lat": -13.68333
    }
  },
  {
    "id": 905789,
    "name": "Mpongwe",
    "country": "ZM",
    "coord": {
      "lon": 28.155041,
      "lat": -13.50914
    }
  },
  {
    "id": 906221,
    "name": "Mkushi",
    "country": "ZM",
    "coord": {
      "lon": 29.3939,
      "lat": -13.62015
    }
  },
  {
    "id": 908718,
    "name": "Maamba",
    "country": "ZM",
    "coord": {
      "lon": 27.15,
      "lat": -17.366671
    }
  },
  {
    "id": 908913,
    "name": "Luwingu",
    "country": "ZM",
    "coord": {
      "lon": 29.92712,
      "lat": -10.2621
    }
  },
  {
    "id": 909299,
    "name": "Lundazi",
    "country": "ZM",
    "coord": {
      "lon": 33.1782,
      "lat": -12.29292
    }
  },
  {
    "id": 909488,
    "name": "Lukulu",
    "country": "ZM",
    "coord": {
      "lon": 23.241961,
      "lat": -14.37067
    }
  },
  {
    "id": 909887,
    "name": "Luangwa",
    "country": "ZM",
    "coord": {
      "lon": 30.41667,
      "lat": -15.61667
    }
  },
  {
    "id": 910361,
    "name": "Limulunga",
    "country": "ZM",
    "coord": {
      "lon": 23.137581,
      "lat": -15.09691
    }
  },
  {
    "id": 912628,
    "name": "Kasempa",
    "country": "ZM",
    "coord": {
      "lon": 25.833799,
      "lat": -13.45836
    }
  },
  {
    "id": 913323,
    "name": "Kaoma",
    "country": "ZM",
    "coord": {
      "lon": 24.799999,
      "lat": -14.78333
    }
  },
  {
    "id": 915285,
    "name": "Kalengwa",
    "country": "ZM",
    "coord": {
      "lon": 25.00271,
      "lat": -13.46586
    }
  },
  {
    "id": 915471,
    "name": "Kalabo",
    "country": "ZM",
    "coord": {
      "lon": 22.681379,
      "lat": -14.97004
    }
  },
  {
    "id": 916246,
    "name": "Kabompo",
    "country": "ZM",
    "coord": {
      "lon": 24.200809,
      "lat": -13.59268
    }
  },
  {
    "id": 916668,
    "name": "Isoka",
    "country": "ZM",
    "coord": {
      "lon": 32.63353,
      "lat": -10.16062
    }
  },
  {
    "id": 917011,
    "name": "Gwembe",
    "country": "ZM",
    "coord": {
      "lon": 27.606911,
      "lat": -16.497549
    }
  },
  {
    "id": 917688,
    "name": "Chongwe",
    "country": "ZM",
    "coord": {
      "lon": 28.682039,
      "lat": -15.32916
    }
  },
  {
    "id": 918905,
    "name": "Chinsali",
    "country": "ZM",
    "coord": {
      "lon": 32.081619,
      "lat": -10.54142
    }
  },
  {
    "id": 920233,
    "name": "Chibombo",
    "country": "ZM",
    "coord": {
      "lon": 28.07057,
      "lat": -14.65685
    }
  },
  {
    "id": 920820,
    "name": "Chambishi",
    "country": "ZM",
    "coord": {
      "lon": 28.053671,
      "lat": -12.63247
    }
  },
  {
    "id": 920901,
    "name": "Chama",
    "country": "ZM",
    "coord": {
      "lon": 33.1521,
      "lat": -11.21304
    }
  },
  {
    "id": 921028,
    "name": "Chadiza",
    "country": "ZM",
    "coord": {
      "lon": 32.439171,
      "lat": -14.06779
    }
  },
  {
    "id": 881331,
    "name": "Shangani",
    "country": "ZW",
    "coord": {
      "lon": 29.366671,
      "lat": -19.783331
    }
  },
  {
    "id": 881345,
    "name": "Shamva",
    "country": "ZW",
    "coord": {
      "lon": 31.575609,
      "lat": -17.31159
    }
  },
  {
    "id": 882722,
    "name": "Raffingora",
    "country": "ZW",
    "coord": {
      "lon": 30.433331,
      "lat": -17.033331
    }
  },
  {
    "id": 882859,
    "name": "Plumtree",
    "country": "ZW",
    "coord": {
      "lon": 27.816669,
      "lat": -20.48333
    }
  },
  {
    "id": 882955,
    "name": "Penhalonga",
    "country": "ZW",
    "coord": {
      "lon": 32.697811,
      "lat": -18.891121
    }
  },
  {
    "id": 883183,
    "name": "Odzi",
    "country": "ZW",
    "coord": {
      "lon": 32.405571,
      "lat": -18.96167
    }
  },
  {
    "id": 883258,
    "name": "Nyazura",
    "country": "ZW",
    "coord": {
      "lon": 32.167961,
      "lat": -18.70587
    }
  },
  {
    "id": 883481,
    "name": "Nyanga",
    "country": "ZW",
    "coord": {
      "lon": 32.75,
      "lat": -18.216669
    }
  },